[{"id":3533556,"name":"Zaza del Medio","country":"CU","coord":{"lon":-79.366943,"lat":21.996111}},{"id":3533753,"name":"Yara","country":"CU","coord":{"lon":-76.953331,"lat":20.27528}},{"id":3533826,"name":"Yaguajay","country":"CU","coord":{"lon":-79.237778,"lat":22.327221}},{"id":3534168,"name":"Provincia de Villa Clara","country":"CU","coord":{"lon":-80,"lat":22.5}},{"id":3534363,"name":"Vertientes","country":"CU","coord":{"lon":-78.146393,"lat":21.259439}},{"id":3534432,"name":"Venezuela","country":"CU","coord":{"lon":-78.796387,"lat":21.735279}},{"id":3534452,"name":"Venegas","country":"CU","coord":{"lon":-79.98333,"lat":21.783331}},{"id":3534632,"name":"Varadero","country":"CU","coord":{"lon":-81.251389,"lat":23.15361}},{"id":3534915,"name":"Trinidad","country":"CU","coord":{"lon":-79.984169,"lat":21.801941}},{"id":3535431,"name":"Tejar la Palma","country":"CU","coord":{"lon":-80.416672,"lat":22.133329}},{"id":3536192,"name":"Siguanea","country":"CU","coord":{"lon":-82.959717,"lat":21.63139}},{"id":3536640,"name":"Santo Domingo","country":"CU","coord":{"lon":-80.243607,"lat":22.58667}},{"id":3536724,"name":"Santiago de las Vegas","country":"CU","coord":{"lon":-82.38694,"lat":22.969999}},{"id":3536725,"name":"Provincia de Santiago de Cuba","country":"CU","coord":{"lon":-76,"lat":20.25}},{"id":3536729,"name":"Santiago de Cuba","country":"CU","coord":{"lon":-75.821938,"lat":20.024719}},{"id":3537511,"name":"Santa Juana","country":"CU","coord":{"lon":-83.583328,"lat":22.4}},{"id":3537840,"name":"Santa Cruz del Sur","country":"CU","coord":{"lon":-77.99556,"lat":20.71472}},{"id":3537845,"name":"Santa Cruz del Norte","country":"CU","coord":{"lon":-81.923607,"lat":23.153891}},{"id":3537900,"name":"Santa Clara","country":"CU","coord":{"lon":-79.76667,"lat":22.16667}},{"id":3537906,"name":"Santa Clara","country":"CU","coord":{"lon":-79.966667,"lat":22.4}},{"id":3539092,"name":"San Luis","country":"CU","coord":{"lon":-83.761108,"lat":22.27861}},{"id":3539093,"name":"San Luis","country":"CU","coord":{"lon":-75.85083,"lat":20.1875}},{"id":3539201,"name":"San Lino","country":"CU","coord":{"lon":-80.550003,"lat":22.4}},{"id":3540680,"name":"San Cristobal","country":"CU","coord":{"lon":-83.048058,"lat":22.71417}},{"id":3541440,"name":"Sagua la Grande","country":"CU","coord":{"lon":-80.075562,"lat":22.806669}},{"id":3541999,"name":"Rodas","country":"CU","coord":{"lon":-80.55722,"lat":22.34083}},{"id":3542351,"name":"Residencial Porta","country":"CU","coord":{"lon":-82.349998,"lat":23.01667}},{"id":3542455,"name":"Remedios","country":"CU","coord":{"lon":-79.54583,"lat":22.49472}},{"id":3542744,"name":"Ranchuelo","country":"CU","coord":{"lon":-80.148888,"lat":22.37722}},{"id":3542753,"name":"Rancho Veloz","country":"CU","coord":{"lon":-80.39167,"lat":22.88056}},{"id":3542759,"name":"Rancho Pekita","country":"CU","coord":{"lon":-82.26667,"lat":23.15}},{"id":3543299,"name":"Puerto Padre","country":"CU","coord":{"lon":-76.602783,"lat":21.195}},{"id":3543498,"name":"Primero de Enero","country":"CU","coord":{"lon":-78.428329,"lat":21.946939}},{"id":3543939,"name":"Platanal","country":"CU","coord":{"lon":-75.147499,"lat":20.084999}},{"id":3543961,"name":"Placetas","country":"CU","coord":{"lon":-79.653328,"lat":22.311939}},{"id":3544393,"name":"Perico","country":"CU","coord":{"lon":-81.01889,"lat":22.769171}},{"id":3544607,"name":"Pedro Betancourt","country":"CU","coord":{"lon":-81.290001,"lat":22.727221}},{"id":3545040,"name":"Palmira","country":"CU","coord":{"lon":-80.390282,"lat":22.241671}},{"id":3545064,"name":"Palma Soriano","country":"CU","coord":{"lon":-75.998894,"lat":20.21722}},{"id":3545841,"name":"Nuevitas","country":"CU","coord":{"lon":-77.264442,"lat":21.54528}},{"id":3545867,"name":"Nueva Gerona","country":"CU","coord":{"lon":-82.800003,"lat":21.883329}},{"id":3545981,"name":"Niquero","country":"CU","coord":{"lon":-77.582779,"lat":20.04306}},{"id":3546791,"name":"Moa","country":"CU","coord":{"lon":-74.940277,"lat":20.65694}},{"id":3546894,"name":"Minas","country":"CU","coord":{"lon":-77.616669,"lat":21.48333}},{"id":3547180,"name":"Municipio de Melena del Sur","country":"CU","coord":{"lon":-82.151131,"lat":22.78821}},{"id":3547181,"name":"Melena del Sur","country":"CU","coord":{"lon":-82.151382,"lat":22.78813}},{"id":3547258,"name":"Media Luna","country":"CU","coord":{"lon":-83.383331,"lat":22.26667}},{"id":3547260,"name":"Media Luna","country":"CU","coord":{"lon":-77.434998,"lat":20.141939}},{"id":3547394,"name":"Provincia de Matanzas","country":"CU","coord":{"lon":-81.166672,"lat":22.66667}},{"id":3547398,"name":"Matanzas","country":"CU","coord":{"lon":-81.577499,"lat":23.041109}},{"id":3547600,"name":"Mariel","country":"CU","coord":{"lon":-82.753609,"lat":22.987499}},{"id":3547867,"name":"Manzanillo","country":"CU","coord":{"lon":-77.116669,"lat":20.34333}},{"id":3547930,"name":"Mantua","country":"CU","coord":{"lon":-84.284439,"lat":22.288891}},{"id":3547976,"name":"Manicaragua","country":"CU","coord":{"lon":-79.97361,"lat":22.149441}},{"id":3548000,"name":"Manguito","country":"CU","coord":{"lon":-80.914436,"lat":22.58806}},{"id":3548529,"name":"Madruga","country":"CU","coord":{"lon":-81.85611,"lat":22.91139}},{"id":3548993,"name":"Los Palacios","country":"CU","coord":{"lon":-83.248611,"lat":22.587219}},{"id":3549463,"name":"Los Arabos","country":"CU","coord":{"lon":-80.72139,"lat":22.72806}},{"id":3550595,"name":"Las Tunas","country":"CU","coord":{"lon":-76.900002,"lat":21.1}},{"id":3550598,"name":"Las Tunas","country":"CU","coord":{"lon":-76.951111,"lat":20.96167}},{"id":3550852,"name":"Las Minas","country":"CU","coord":{"lon":-79.925003,"lat":22.47917}},{"id":3551608,"name":"La Salud","country":"CU","coord":{"lon":-82.423889,"lat":22.871389}},{"id":3552028,"name":"La Playa","country":"CU","coord":{"lon":-74.504723,"lat":20.346939}},{"id":3552838,"name":"La Luisa","country":"CU","coord":{"lon":-82.416672,"lat":22.98333}},{"id":3553478,"name":"Havana","country":"CU","coord":{"lon":-82.383041,"lat":23.13302}},{"id":3555907,"name":"Jovellanos","country":"CU","coord":{"lon":-81.194443,"lat":22.80444}},{"id":3556077,"name":"Jobabo","country":"CU","coord":{"lon":-76.299438,"lat":20.96917}},{"id":3556334,"name":"Jatibonico","country":"CU","coord":{"lon":-79.169998,"lat":21.94194}},{"id":3556351,"name":"Jaruco","country":"CU","coord":{"lon":-82.010834,"lat":23.04306}},{"id":3556406,"name":"Jamaica","country":"CU","coord":{"lon":-82.17028,"lat":22.97917}},{"id":3556608,"name":"Municipio Especial Isla de la Juventud","country":"CU","coord":{"lon":-82.481941,"lat":21.83333}},{"id":3557332,"name":"Guisa","country":"CU","coord":{"lon":-76.538612,"lat":20.254999}},{"id":3557678,"name":"Guara","country":"CU","coord":{"lon":-82.203056,"lat":22.809999}},{"id":3557758,"name":"Guane","country":"CU","coord":{"lon":-84.087502,"lat":22.202499}},{"id":3557801,"name":"Guanajay","country":"CU","coord":{"lon":-82.6875,"lat":22.92639}},{"id":3558052,"name":"Provincia Granma","country":"CU","coord":{"lon":-77,"lat":20.25}},{"id":3558315,"name":"Gibara","country":"CU","coord":{"lon":-76.131668,"lat":21.10972}},{"id":3558744,"name":"Fomento","country":"CU","coord":{"lon":-79.721672,"lat":22.103889}},{"id":3558771,"name":"Florida","country":"CU","coord":{"lon":-78.22583,"lat":21.524719}},{"id":3559235,"name":"Esperanza","country":"CU","coord":{"lon":-80.099998,"lat":22.450001}},{"id":3559318,"name":"Esmeralda","country":"CU","coord":{"lon":-78.116943,"lat":21.852501}},{"id":3559416,"name":"Encrucijada","country":"CU","coord":{"lon":-79.871109,"lat":22.61694}},{"id":3561408,"name":"El Cobre","country":"CU","coord":{"lon":-75.946938,"lat":20.048889}},{"id":3561667,"name":"El Caney","country":"CU","coord":{"lon":-78.48333,"lat":21.299999}},{"id":3562827,"name":"Cumanayagua","country":"CU","coord":{"lon":-80.202217,"lat":22.149441}},{"id":3562895,"name":"Cueto","country":"CU","coord":{"lon":-75.935562,"lat":20.64389}},{"id":3562914,"name":"Cuentas Claras","country":"CU","coord":{"lon":-77.083328,"lat":20.299999}},{"id":3562981,"name":"Republic of Cuba","country":"CU","coord":{"lon":-79.5,"lat":22}},{"id":3563145,"name":"Cruces","country":"CU","coord":{"lon":-80.26667,"lat":22.34111}},{"id":3563317,"name":"Corralillo","country":"CU","coord":{"lon":-80.585564,"lat":22.981939}},{"id":3563504,"name":"Contramaestre","country":"CU","coord":{"lon":-76.241386,"lat":20.297779}},{"id":3563609,"name":"Condado","country":"CU","coord":{"lon":-79.840279,"lat":21.876671}},{"id":3563856,"name":"Colombia","country":"CU","coord":{"lon":-77.429718,"lat":20.98806}},{"id":3564073,"name":"La Habana","country":"CU","coord":{"lon":-82.300003,"lat":23.08333}},{"id":3564114,"name":"Cifuentes","country":"CU","coord":{"lon":-80.046112,"lat":22.645}},{"id":3564120,"name":"Provincia de Cienfuegos","country":"CU","coord":{"lon":-80.5,"lat":22.299999}},{"id":3564124,"name":"Cienfuegos","country":"CU","coord":{"lon":-80.435562,"lat":22.146111}},{"id":3564394,"name":"Chambas","country":"CU","coord":{"lon":-78.913612,"lat":22.19278}},{"id":3565768,"name":"Candelaria","country":"CU","coord":{"lon":-82.961113,"lat":22.740561}},{"id":3565951,"name":"Campechuela","country":"CU","coord":{"lon":-77.278893,"lat":20.234171}},{"id":3566134,"name":"Calimete","country":"CU","coord":{"lon":-80.906113,"lat":22.533331}},{"id":3566235,"name":"Calabazar de Sagua","country":"CU","coord":{"lon":-79.896111,"lat":22.64472}},{"id":3566714,"name":"Buenavista","country":"CU","coord":{"lon":-82.400002,"lat":22.98333}},{"id":3567546,"name":"Bejucal","country":"CU","coord":{"lon":-82.388611,"lat":22.92861}},{"id":3567597,"name":"Bayamo","country":"CU","coord":{"lon":-76.643333,"lat":20.379169}},{"id":3567612,"name":"Bauta","country":"CU","coord":{"lon":-82.546387,"lat":22.98278}},{"id":3567834,"name":"Baracoa","country":"CU","coord":{"lon":-74.495827,"lat":20.34667}},{"id":3567869,"name":"Banes","country":"CU","coord":{"lon":-75.718613,"lat":20.9625}},{"id":3568312,"name":"Artemisa","country":"CU","coord":{"lon":-82.76194,"lat":22.813061}},{"id":3569185,"name":"Almanza","country":"CU","coord":{"lon":-81.416672,"lat":23.066669}},{"id":3569370,"name":"Alamar","country":"CU","coord":{"lon":-82.276939,"lat":23.158331}},{"id":3569379,"name":"Alacranes","country":"CU","coord":{"lon":-81.567497,"lat":22.7675}},{"id":3569546,"name":"Aguada de Pasajeros","country":"CU","coord":{"lon":-80.85083,"lat":22.385}},{"id":3569741,"name":"Abreus","country":"CU","coord":{"lon":-80.567497,"lat":22.2775}},{"id":3746183,"name":"Centro Habana","country":"CU","coord":{"lon":-82.364166,"lat":23.13833}},{"id":3746599,"name":"Rolo Monterrey","country":"CU","coord":{"lon":-74.921669,"lat":20.647779}},{"id":3746938,"name":"Baguanos","country":"CU","coord":{"lon":-76.026939,"lat":20.751671}},{"id":3766955,"name":"Playa de Aguadores","country":"CU","coord":{"lon":-75.832222,"lat":19.96806}},{"id":7668824,"name":"Artemisa","country":"CU","coord":{"lon":-82.756058,"lat":22.813999}},{"id":7668827,"name":"Provincia Mayabeque","country":"CU","coord":{"lon":-82.147179,"lat":22.96155}}]