[{"id":3587506,"name":"Zunilito","country":"GT","coord":{"lon":-91.51667,"lat":14.61667}},{"id":3587510,"name":"Zunil","country":"GT","coord":{"lon":-91.48333,"lat":14.78333}},{"id":3587543,"name":"Zaragoza","country":"GT","coord":{"lon":-90.889442,"lat":14.65444}},{"id":3587578,"name":"Zacualpa","country":"GT","coord":{"lon":-90.833328,"lat":15.08333}},{"id":3587586,"name":"Departamento de Zacapa","country":"GT","coord":{"lon":-89.5,"lat":15}},{"id":3587587,"name":"Zacapa","country":"GT","coord":{"lon":-89.533333,"lat":14.96667}},{"id":3587593,"name":"Yupiltepeque","country":"GT","coord":{"lon":-89.783333,"lat":14.2}},{"id":3587636,"name":"Yepocapa","country":"GT","coord":{"lon":-90.95694,"lat":14.50417}},{"id":3587902,"name":"Villa Nueva","country":"GT","coord":{"lon":-90.587502,"lat":14.52694}},{"id":3587917,"name":"Villa Hermosa","country":"GT","coord":{"lon":-91.566673,"lat":14.86667}},{"id":3587923,"name":"Villa Canales","country":"GT","coord":{"lon":-90.53167,"lat":14.48139}},{"id":3588369,"name":"Tikal","country":"GT","coord":{"lon":-89.613327,"lat":17.225}},{"id":3588460,"name":"Tejutla","country":"GT","coord":{"lon":-91.800003,"lat":15.11667}},{"id":3588491,"name":"Taxisco","country":"GT","coord":{"lon":-90.463058,"lat":14.07083}},{"id":3588588,"name":"Tajumulco","country":"GT","coord":{"lon":-91.883331,"lat":15.08333}},{"id":3588603,"name":"Tactic","country":"GT","coord":{"lon":-90.300003,"lat":15.33333}},{"id":3588653,"name":"Sumpango","country":"GT","coord":{"lon":-90.733887,"lat":14.64639}},{"id":3588694,"name":"Soloma","country":"GT","coord":{"lon":-91.449997,"lat":15.71667}},{"id":3588726,"name":"Sipacapa","country":"GT","coord":{"lon":-91.666672,"lat":15.2}},{"id":3588760,"name":"Sibinal","country":"GT","coord":{"lon":-92.050003,"lat":15.13333}},{"id":3588762,"name":"Sibilia","country":"GT","coord":{"lon":-91.616669,"lat":15}},{"id":3589036,"name":"San Vicente Pacaya","country":"GT","coord":{"lon":-90.639168,"lat":14.41611}},{"id":3589072,"name":"Santo Domingo Xenacoj","country":"GT","coord":{"lon":-90.697777,"lat":14.67778}},{"id":3589103,"name":"Santiago Chimaltenango","country":"GT","coord":{"lon":-91.716667,"lat":15.46667}},{"id":3589159,"name":"Santa Rosa de Lima","country":"GT","coord":{"lon":-90.295563,"lat":14.38806}},{"id":3589172,"name":"Departamento de Santa Rosa","country":"GT","coord":{"lon":-90.300003,"lat":14.16667}},{"id":3589287,"name":"Santa Lucia La Reforma","country":"GT","coord":{"lon":-91.235558,"lat":15.12833}},{"id":3589355,"name":"Santa Eulalia","country":"GT","coord":{"lon":-91.45694,"lat":15.73306}},{"id":3589395,"name":"Santa Cruz Verapaz","country":"GT","coord":{"lon":-90.433327,"lat":15.36667}},{"id":3589398,"name":"Santa Cruz Naranjo","country":"GT","coord":{"lon":-90.36972,"lat":14.38806}},{"id":3589402,"name":"Santa Cruz La Laguna","country":"GT","coord":{"lon":-91.216667,"lat":14.75}},{"id":3589433,"name":"Santa Clara La Laguna","country":"GT","coord":{"lon":-91.300003,"lat":14.71667}},{"id":3589452,"name":"Santa Catarina Pinula","country":"GT","coord":{"lon":-90.495277,"lat":14.56889}},{"id":3589456,"name":"Santa Catarina Mita","country":"GT","coord":{"lon":-89.75,"lat":14.45}},{"id":3589460,"name":"Santa Catarina Barahona","country":"GT","coord":{"lon":-90.78833,"lat":14.54889}},{"id":3589480,"name":"Santa Apolonia","country":"GT","coord":{"lon":-90.970833,"lat":14.79139}},{"id":3589498,"name":"Santa Ana Huista","country":"GT","coord":{"lon":-91.816673,"lat":15.68333}},{"id":3589507,"name":"Santa Ana","country":"GT","coord":{"lon":-89.833328,"lat":16.799999}},{"id":3589554,"name":"Sansare","country":"GT","coord":{"lon":-90.112503,"lat":14.74722}},{"id":3589569,"name":"San Raimundo","country":"GT","coord":{"lon":-90.595558,"lat":14.76472}},{"id":3589573,"name":"Soche","country":"GT","coord":{"lon":-91.800003,"lat":14.96667}},{"id":3589577,"name":"San Rafael Pie de la Cuesta","country":"GT","coord":{"lon":-91.916672,"lat":14.93333}},{"id":3589579,"name":"San Rafael Petzal","country":"GT","coord":{"lon":-91.664513,"lat":15.40487}},{"id":3589592,"name":"San Rafael Las Flores","country":"GT","coord":{"lon":-90.173332,"lat":14.48139}},{"id":3589595,"name":"San Rafael La Independencia","country":"GT","coord":{"lon":-91.533333,"lat":15.71667}},{"id":3589629,"name":"San Pedro Pinula","country":"GT","coord":{"lon":-89.849998,"lat":14.66667}},{"id":3589632,"name":"San Pedro Necta","country":"GT","coord":{"lon":-91.76667,"lat":15.5}},{"id":3589637,"name":"San Pedro La Laguna","country":"GT","coord":{"lon":-91.26667,"lat":14.68333}},{"id":3589646,"name":"San Pedro Ayampuc","country":"GT","coord":{"lon":-90.451111,"lat":14.78667}},{"id":3589669,"name":"San Pablo La Laguna","country":"GT","coord":{"lon":-91.26667,"lat":14.71667}},{"id":3589671,"name":"San Pablo Jocopilas","country":"GT","coord":{"lon":-91.449997,"lat":14.58333}},{"id":3589677,"name":"San Pablo","country":"GT","coord":{"lon":-92,"lat":14.93333}},{"id":3589730,"name":"San Miguel Chicaj","country":"GT","coord":{"lon":-90.400002,"lat":15.1}},{"id":3589774,"name":"San Mateo","country":"GT","coord":{"lon":-91.583328,"lat":14.86667}},{"id":3589795,"name":"San Marcos La Laguna","country":"GT","coord":{"lon":-91.26667,"lat":14.71667}},{"id":3589799,"name":"Municipio de San Marcos","country":"GT","coord":{"lon":-91.800003,"lat":14.96667}},{"id":3589801,"name":"Departamento de San Marcos","country":"GT","coord":{"lon":-91.916672,"lat":15}},{"id":3589805,"name":"San Marcos","country":"GT","coord":{"lon":-91.800003,"lat":14.96667}},{"id":3589822,"name":"San Luis Jilotepeque","country":"GT","coord":{"lon":-89.73333,"lat":14.65}},{"id":3589841,"name":"San Luis","country":"GT","coord":{"lon":-89.440277,"lat":16.198891}},{"id":3589848,"name":"San Luis","country":"GT","coord":{"lon":-91.683327,"lat":14.51667}},{"id":3589865,"name":"San Lorenzo","country":"GT","coord":{"lon":-91.73333,"lat":15.03333}},{"id":3589869,"name":"San Lorenzo","country":"GT","coord":{"lon":-91.51667,"lat":14.48333}},{"id":3589880,"name":"San Juan Tecuaco","country":"GT","coord":{"lon":-90.261108,"lat":14.08222}},{"id":3589896,"name":"San Juan La Laguna","country":"GT","coord":{"lon":-91.283333,"lat":14.7}},{"id":3589900,"name":"San Juan Ixcoy","country":"GT","coord":{"lon":-91.445282,"lat":15.59972}},{"id":3589903,"name":"San Juan Ermita","country":"GT","coord":{"lon":-89.433327,"lat":14.76667}},{"id":3589913,"name":"San Juan Cotzal","country":"GT","coord":{"lon":-91.034172,"lat":15.43417}},{"id":3589917,"name":"San Juan Chamelco","country":"GT","coord":{"lon":-90.333328,"lat":15.43333}},{"id":3589923,"name":"San Juan Bautista","country":"GT","coord":{"lon":-91.183327,"lat":14.41667}},{"id":3590127,"name":"San Jacinto","country":"GT","coord":{"lon":-89.5,"lat":14.66667}},{"id":3590188,"name":"San Gaspar Ixchil","country":"GT","coord":{"lon":-91.716667,"lat":15.38333}},{"id":3590195,"name":"San Gabriel","country":"GT","coord":{"lon":-91.51667,"lat":14.51667}},{"id":3590219,"name":"San Francisco El Alto","country":"GT","coord":{"lon":-91.449997,"lat":14.95}},{"id":3590249,"name":"San Francisco","country":"GT","coord":{"lon":-89.933327,"lat":16.799999}},{"id":3590288,"name":"San Felipe","country":"GT","coord":{"lon":-91.599998,"lat":14.61667}},{"id":3590347,"name":"San Carlos Sija","country":"GT","coord":{"lon":-91.550003,"lat":14.98333}},{"id":3590384,"name":"San Bernardino","country":"GT","coord":{"lon":-91.449997,"lat":14.53333}},{"id":3590386,"name":"Municipio de San Benito","country":"GT","coord":{"lon":-89.90979,"lat":16.912889}},{"id":3590389,"name":"San Benito","country":"GT","coord":{"lon":-89.908684,"lat":16.91321}},{"id":3590399,"name":"San Bartolo","country":"GT","coord":{"lon":-91.455833,"lat":15.08444}},{"id":3590406,"name":"Sanarate","country":"GT","coord":{"lon":-90.192223,"lat":14.795}},{"id":3590449,"name":"San Antonio La Paz","country":"GT","coord":{"lon":-90.286667,"lat":14.74972}},{"id":3590456,"name":"San Antonio Ilotenango","country":"GT","coord":{"lon":-91.229721,"lat":15.05472}},{"id":3590458,"name":"San Antonio Huista","country":"GT","coord":{"lon":-91.76667,"lat":15.65}},{"id":3590475,"name":"San Antonio Aguas Calientes","country":"GT","coord":{"lon":-90.76944,"lat":14.53972}},{"id":3590567,"name":"Samayac","country":"GT","coord":{"lon":-91.461349,"lat":14.58084}},{"id":3590573,"name":"Cooperativa Samac","country":"GT","coord":{"lon":-90.400002,"lat":15.46667}},{"id":3590690,"name":"Sacapulas","country":"GT","coord":{"lon":-91.087219,"lat":15.28667}},{"id":3590856,"name":"Municipio de Retalhuleu","country":"GT","coord":{"lon":-91.683327,"lat":14.53333}},{"id":3590857,"name":"Departamento de Retalhuleu","country":"GT","coord":{"lon":-91.833328,"lat":14.33333}},{"id":3590858,"name":"Retalhuleu","country":"GT","coord":{"lon":-91.683327,"lat":14.53333}},{"id":3590924,"name":"Rabinal","country":"GT","coord":{"lon":-90.449997,"lat":15.1}},{"id":3590973,"name":"Quezaltepeque","country":"GT","coord":{"lon":-89.449997,"lat":14.63333}},{"id":3590978,"name":"Departamento de Quetzaltenango","country":"GT","coord":{"lon":-91.666672,"lat":14.75}},{"id":3590979,"name":"Quetzaltenango","country":"GT","coord":{"lon":-91.51667,"lat":14.83333}},{"id":3590987,"name":"Quesada","country":"GT","coord":{"lon":-90.040283,"lat":14.27028}},{"id":3591061,"name":"Municipio de Puerto Barrios","country":"GT","coord":{"lon":-88.599998,"lat":15.71667}},{"id":3591062,"name":"Puerto Barrios","country":"GT","coord":{"lon":-88.599998,"lat":15.71667}},{"id":3591064,"name":"Puerta Parada","country":"GT","coord":{"lon":-90.466667,"lat":14.56667}},{"id":3591093,"name":"Tiquisate","country":"GT","coord":{"lon":-91.366669,"lat":14.28333}},{"id":3591106,"name":"Pueblo Nuevo","country":"GT","coord":{"lon":-91.533333,"lat":14.65}},{"id":3591210,"name":"Pochuta","country":"GT","coord":{"lon":-91.083328,"lat":14.55}},{"id":3591296,"name":"Pino Gordo","country":"GT","coord":{"lon":-90.050003,"lat":14.63333}},{"id":3591415,"name":"Petapa","country":"GT","coord":{"lon":-90.551666,"lat":14.50278}},{"id":3591541,"name":"Patulul","country":"GT","coord":{"lon":-91.166672,"lat":14.41667}},{"id":3591574,"name":"Pastores","country":"GT","coord":{"lon":-90.754723,"lat":14.59667}},{"id":3591618,"name":"Pasaco","country":"GT","coord":{"lon":-90.20639,"lat":13.97722}},{"id":3591629,"name":"Parramos","country":"GT","coord":{"lon":-90.803062,"lat":14.60778}},{"id":3591750,"name":"Panajachel","country":"GT","coord":{"lon":-91.150002,"lat":14.73333}},{"id":3591841,"name":"Palestina de los Altos","country":"GT","coord":{"lon":-91.699997,"lat":14.93333}},{"id":3591851,"name":"Palencia","country":"GT","coord":{"lon":-90.358612,"lat":14.66472}},{"id":3591885,"name":"Pajapita","country":"GT","coord":{"lon":-92.033333,"lat":14.71667}},{"id":3591939,"name":"Pachoj","country":"GT","coord":{"lon":-91.116669,"lat":14.93333}},{"id":3591955,"name":"Pachalum","country":"GT","coord":{"lon":-90.662781,"lat":14.92472}},{"id":3591997,"name":"Ostuncalco","country":"GT","coord":{"lon":-91.616669,"lat":14.86667}},{"id":3592019,"name":"Oratorio","country":"GT","coord":{"lon":-90.175827,"lat":14.22806}},{"id":3592035,"name":"Olopa","country":"GT","coord":{"lon":-89.349998,"lat":14.68333}},{"id":3592070,"name":"Ojo de Agua","country":"GT","coord":{"lon":-90.316673,"lat":14.35}},{"id":3592105,"name":"Nuevo San Carlos","country":"GT","coord":{"lon":-91.699997,"lat":14.6}},{"id":3592108,"name":"Nuevo Progreso","country":"GT","coord":{"lon":-91.916672,"lat":14.8}},{"id":3592126,"name":"Nueva Santa Rosa","country":"GT","coord":{"lon":-90.276108,"lat":14.38111}},{"id":3592237,"name":"Nebaj","country":"GT","coord":{"lon":-91.146111,"lat":15.40583}},{"id":3592322,"name":"Moyuta","country":"GT","coord":{"lon":-90.080833,"lat":14.03861}},{"id":3592362,"name":"Morales","country":"GT","coord":{"lon":-88.816673,"lat":15.48333}},{"id":3592477,"name":"Monjas","country":"GT","coord":{"lon":-89.866669,"lat":14.5}},{"id":3592482,"name":"Municipio de Momostenango","country":"GT","coord":{"lon":-91.40625,"lat":15.04726}},{"id":3592483,"name":"Momostenango","country":"GT","coord":{"lon":-91.408607,"lat":15.04361}},{"id":3592519,"name":"Mixco","country":"GT","coord":{"lon":-90.606392,"lat":14.63333}},{"id":3592609,"name":"Mazatenango","country":"GT","coord":{"lon":-91.5,"lat":14.53333}},{"id":3592612,"name":"Mayuelas","country":"GT","coord":{"lon":-89.366669,"lat":15.13333}},{"id":3592635,"name":"Mataquescuintla","country":"GT","coord":{"lon":-90.184174,"lat":14.52917}},{"id":3592642,"name":"Masagua","country":"GT","coord":{"lon":-90.848061,"lat":14.20306}},{"id":3592751,"name":"Malacatancito","country":"GT","coord":{"lon":-91.51667,"lat":15.21667}},{"id":3592770,"name":"Magdalena Milpas Altas","country":"GT","coord":{"lon":-90.675278,"lat":14.54528}},{"id":3592910,"name":"Los Puentes","country":"GT","coord":{"lon":-89.716667,"lat":14.98333}},{"id":3593087,"name":"Los Encuentros","country":"GT","coord":{"lon":-90.26667,"lat":15.1}},{"id":3593235,"name":"Los Amates","country":"GT","coord":{"lon":-89.099998,"lat":15.26667}},{"id":3593359,"name":"Llano de Olintepeque","country":"GT","coord":{"lon":-91.51667,"lat":14.86667}},{"id":3594143,"name":"La Reforma","country":"GT","coord":{"lon":-91.816673,"lat":14.8}},{"id":3594422,"name":"La Libertad","country":"GT","coord":{"lon":-90.116669,"lat":16.783331}},{"id":3594423,"name":"La Libertad","country":"GT","coord":{"lon":-91.833328,"lat":15.5}},{"id":3594425,"name":"La Libertad","country":"GT","coord":{"lon":-92.050003,"lat":14.9}},{"id":3594575,"name":"La Gomera","country":"GT","coord":{"lon":-91.050003,"lat":14.08333}},{"id":3594666,"name":"Municipio de La Esperanza","country":"GT","coord":{"lon":-91.566673,"lat":14.86667}},{"id":3594703,"name":"La Esperanza","country":"GT","coord":{"lon":-91.566673,"lat":14.86667}},{"id":3594750,"name":"Municipio de La Democracia","country":"GT","coord":{"lon":-90.949997,"lat":14.23333}},{"id":3594753,"name":"La Democracia","country":"GT","coord":{"lon":-90.94722,"lat":14.23083}},{"id":3595030,"name":"La Aurora","country":"GT","coord":{"lon":-90.5,"lat":14.58333}},{"id":3595067,"name":"Departamento de Jutiapa","country":"GT","coord":{"lon":-89.833328,"lat":14.16667}},{"id":3595069,"name":"Jutiapa","country":"GT","coord":{"lon":-89.900002,"lat":14.28333}},{"id":3595148,"name":"Joyabaj","country":"GT","coord":{"lon":-90.806107,"lat":14.995}},{"id":3595171,"name":"Jocotenango","country":"GT","coord":{"lon":-90.743607,"lat":14.58194}},{"id":3595224,"name":"Jerez","country":"GT","coord":{"lon":-89.75,"lat":14.1}},{"id":3595232,"name":"Jalpatagua","country":"GT","coord":{"lon":-90.008614,"lat":14.14167}},{"id":3595236,"name":"Departamento de Jalapa","country":"GT","coord":{"lon":-89.916672,"lat":14.58333}},{"id":3595237,"name":"Jalapa","country":"GT","coord":{"lon":-89.98333,"lat":14.63333}},{"id":3595248,"name":"Jacaltenango","country":"GT","coord":{"lon":-91.73333,"lat":15.66667}},{"id":3595255,"name":"Iztapa","country":"GT","coord":{"lon":-90.707497,"lat":13.93333}},{"id":3595259,"name":"Departamento de Izabal","country":"GT","coord":{"lon":-89,"lat":15.5}},{"id":3595366,"name":"Ipala","country":"GT","coord":{"lon":-89.616669,"lat":14.61667}},{"id":3595414,"name":"Municipio de Huehuetenango","country":"GT","coord":{"lon":-91.471649,"lat":15.3192}},{"id":3595415,"name":"Departamento de Huehuetenango","country":"GT","coord":{"lon":-91.583328,"lat":15.66667}},{"id":3595416,"name":"Huehuetenango","country":"GT","coord":{"lon":-91.470833,"lat":15.31972}},{"id":3595528,"name":"Republic of Guatemala","country":"GT","coord":{"lon":-90.25,"lat":15.5}},{"id":3595530,"name":"Departamento de Guatemala","country":"GT","coord":{"lon":-90.5,"lat":14.66667}},{"id":3595554,"name":"Guanagazapa","country":"GT","coord":{"lon":-90.643333,"lat":14.22528}},{"id":3595714,"name":"Fraijanes","country":"GT","coord":{"lon":-90.440826,"lat":14.46528}},{"id":3595721,"name":"Flores Costa Cuca","country":"GT","coord":{"lon":-91.816673,"lat":14.65}},{"id":3595722,"name":"Municipio de Flores","country":"GT","coord":{"lon":-89.897087,"lat":16.923809}},{"id":3595725,"name":"Flores","country":"GT","coord":{"lon":-89.899406,"lat":16.922581}},{"id":3595757,"name":"Estanzuela","country":"GT","coord":{"lon":-89.566673,"lat":15}},{"id":3595778,"name":"Esquipulas Palo Gordo","country":"GT","coord":{"lon":-91.816673,"lat":14.93333}},{"id":3595783,"name":"Esquipulas","country":"GT","coord":{"lon":-89.349998,"lat":14.56667}},{"id":3595801,"name":"Municipio de Escuintla","country":"GT","coord":{"lon":-90.783333,"lat":14.3}},{"id":3595802,"name":"Departamento de Escuintla","country":"GT","coord":{"lon":-91,"lat":14.16667}},{"id":3595803,"name":"Escuintla","country":"GT","coord":{"lon":-90.785004,"lat":14.305}},{"id":3595929,"name":"El Tumbador","country":"GT","coord":{"lon":-91.933327,"lat":14.86667}},{"id":3596041,"name":"El Tejar","country":"GT","coord":{"lon":-90.792778,"lat":14.64778}},{"id":3596249,"name":"El Rodeo","country":"GT","coord":{"lon":-91.966667,"lat":14.91667}},{"id":3596389,"name":"El Quetzal","country":"GT","coord":{"lon":-91.816673,"lat":14.76667}},{"id":3596416,"name":"Departamento de El Progreso","country":"GT","coord":{"lon":-90,"lat":14.83333}},{"id":3596421,"name":"Guastatoya","country":"GT","coord":{"lon":-90.06472,"lat":14.85389}},{"id":3596423,"name":"El Progreso","country":"GT","coord":{"lon":-89.849998,"lat":14.35}},{"id":3596644,"name":"El Palmar","country":"GT","coord":{"lon":-91.583328,"lat":14.65}},{"id":3597002,"name":"El Hato","country":"GT","coord":{"lon":-90.300003,"lat":14.75}},{"id":3597078,"name":"El Estor","country":"GT","coord":{"lon":-89.349998,"lat":15.53333}},{"id":3597301,"name":"El Chol","country":"GT","coord":{"lon":-90.48056,"lat":14.96417}},{"id":3597509,"name":"El Calvario","country":"GT","coord":{"lon":-89.916672,"lat":14.11667}},{"id":3597587,"name":"El Asintal","country":"GT","coord":{"lon":-91.73333,"lat":14.6}},{"id":3597676,"name":"El Adelanto","country":"GT","coord":{"lon":-89.833328,"lat":14.16667}},{"id":3597722,"name":"Dolores","country":"GT","coord":{"lon":-89.415833,"lat":16.51417}},{"id":3597750,"name":"Cuyotenango","country":"GT","coord":{"lon":-91.566673,"lat":14.53333}},{"id":3597802,"name":"Cuilco","country":"GT","coord":{"lon":-91.966667,"lat":15.4}},{"id":3597804,"name":"Cuilapa","country":"GT","coord":{"lon":-90.300278,"lat":14.27639}},{"id":3597837,"name":"Cubulco","country":"GT","coord":{"lon":-90.583328,"lat":15.13333}},{"id":3597887,"name":"Cristo Rey","country":"GT","coord":{"lon":-89.533333,"lat":16.6}},{"id":3597966,"name":"Conguaco","country":"GT","coord":{"lon":-90.031113,"lat":14.04417}},{"id":3598025,"name":"Comitancillo","country":"GT","coord":{"lon":-91.716667,"lat":15.08333}},{"id":3598031,"name":"Comapa","country":"GT","coord":{"lon":-89.916672,"lat":14.11667}},{"id":3598032,"name":"Municipio de Comalapa","country":"GT","coord":{"lon":-90.883331,"lat":14.73333}},{"id":3598034,"name":"Comalapa","country":"GT","coord":{"lon":-90.887497,"lat":14.74111}},{"id":3598041,"name":"Colotenango","country":"GT","coord":{"lon":-91.712669,"lat":15.40602}},{"id":3598073,"name":"Colomba","country":"GT","coord":{"lon":-91.73333,"lat":14.71667}},{"id":3598122,"name":"Coatepeque","country":"GT","coord":{"lon":-91.866669,"lat":14.7}},{"id":3598128,"name":"Ciudad Vieja","country":"GT","coord":{"lon":-90.75972,"lat":14.52639}},{"id":3598131,"name":"Melchor de Mencos","country":"GT","coord":{"lon":-89.152222,"lat":17.068609}},{"id":3598132,"name":"Guatemala City","country":"GT","coord":{"lon":-90.513268,"lat":14.64072}},{"id":3598277,"name":"Chuarrancho","country":"GT","coord":{"lon":-90.508614,"lat":14.82167}},{"id":3598415,"name":"Chisec","country":"GT","coord":{"lon":-90.283333,"lat":15.81667}},{"id":3598462,"name":"Chiquimulilla","country":"GT","coord":{"lon":-90.376671,"lat":14.08583}},{"id":3598463,"name":"Municipio de Chiquimula","country":"GT","coord":{"lon":-89.550003,"lat":14.8}},{"id":3598464,"name":"Departamento de Chiquimula","country":"GT","coord":{"lon":-89.416672,"lat":14.66667}},{"id":3598465,"name":"Chiquimula","country":"GT","coord":{"lon":-89.550003,"lat":14.8}},{"id":3598513,"name":"Chinique","country":"GT","coord":{"lon":-91.025833,"lat":15.04472}},{"id":3598529,"name":"Chinautla","country":"GT","coord":{"lon":-90.499443,"lat":14.70833}},{"id":3598547,"name":"Chimusinique","country":"GT","coord":{"lon":-91.51667,"lat":15.31667}},{"id":3598570,"name":"Municipio de Chimaltenango","country":"GT","coord":{"lon":-90.816673,"lat":14.66667}},{"id":3598571,"name":"Departamento de Chimaltenango","country":"GT","coord":{"lon":-90.916672,"lat":14.66667}},{"id":3598572,"name":"Chimaltenango","country":"GT","coord":{"lon":-90.816673,"lat":14.66861}},{"id":3598655,"name":"Chichicastenango","country":"GT","coord":{"lon":-91.116669,"lat":14.93333}},{"id":3598678,"name":"Chicacao","country":"GT","coord":{"lon":-91.316673,"lat":14.53333}},{"id":3598692,"name":"Chiantla","country":"GT","coord":{"lon":-91.458328,"lat":15.35472}},{"id":3598786,"name":"Municipio de Champerico","country":"GT","coord":{"lon":-91.916672,"lat":14.3}},{"id":3598787,"name":"Champerico","country":"GT","coord":{"lon":-91.916672,"lat":14.3}},{"id":3598804,"name":"Chajul","country":"GT","coord":{"lon":-91.034172,"lat":15.48528}},{"id":3598825,"name":"Chahal Guatemala","country":"GT","coord":{"lon":-89.566673,"lat":15.75}},{"id":3598958,"name":"Catarina","country":"GT","coord":{"lon":-92.083328,"lat":14.85}},{"id":3598968,"name":"Casillas","country":"GT","coord":{"lon":-90.244171,"lat":14.42222}},{"id":3599069,"name":"Cantel","country":"GT","coord":{"lon":-91.449997,"lat":14.81667}},{"id":3599575,"name":"Barillas","country":"GT","coord":{"lon":-91.315826,"lat":15.80361}},{"id":3599582,"name":"Barberena","country":"GT","coord":{"lon":-90.361107,"lat":14.30944}},{"id":3599602,"name":"Departamento de Baja Verapaz","country":"GT","coord":{"lon":-90.333328,"lat":15.08333}},{"id":3599633,"name":"Atescatempa","country":"GT","coord":{"lon":-89.7425,"lat":14.17444}},{"id":3599699,"name":"Antigua Guatemala","country":"GT","coord":{"lon":-90.734444,"lat":14.56111}},{"id":3599773,"name":"Departamento de Alta Verapaz","country":"GT","coord":{"lon":-90,"lat":15.66667}},{"id":3599788,"name":"Alotenango","country":"GT","coord":{"lon":-90.807503,"lat":14.48028}},{"id":3599793,"name":"Almolonga","country":"GT","coord":{"lon":-91.5,"lat":14.81667}},{"id":3599972,"name":"Agua Blanca","country":"GT","coord":{"lon":-89.650002,"lat":14.5}},{"id":3600008,"name":"Acatenango","country":"GT","coord":{"lon":-90.942223,"lat":14.55194}}]