[{"id":245915,"name":"Za?ar","country":"JO","coord":{"lon":35.7775,"lat":32.566669}},{"id":245939,"name":"Yarq?","country":"JO","coord":{"lon":35.694729,"lat":31.978451}},{"id":245989,"name":"Waqq??","country":"JO","coord":{"lon":35.605331,"lat":32.542702}},{"id":246008,"name":"Petra","country":"JO","coord":{"lon":35.479328,"lat":30.32221}},{"id":246013,"name":"W?d? as S?r","country":"JO","coord":{"lon":35.81979,"lat":31.95126}},{"id":246202,"name":"Umm Qays","country":"JO","coord":{"lon":35.685398,"lat":32.653481}},{"id":246314,"name":"Umm as Summ?q","country":"JO","coord":{"lon":35.854301,"lat":31.88542}},{"id":246345,"name":"Umm al Qi??ayn","country":"JO","coord":{"lon":36.62944,"lat":32.315632}},{"id":246522,"name":"Tibnah","country":"JO","coord":{"lon":35.728439,"lat":32.475552}},{"id":246725,"name":"S?f","country":"JO","coord":{"lon":35.837132,"lat":32.313721}},{"id":247015,"name":"?amm?","country":"JO","coord":{"lon":35.69025,"lat":32.57103}},{"id":247061,"name":"S?l","country":"JO","coord":{"lon":35.911942,"lat":32.569439}},{"id":247068,"name":"Sakib","country":"JO","coord":{"lon":35.80946,"lat":32.283298}},{"id":247074,"name":"?akhrah","country":"JO","coord":{"lon":35.846561,"lat":32.36805}},{"id":247103,"name":"Sa?am al Kaff?r?t","country":"JO","coord":{"lon":35.776112,"lat":32.69833}},{"id":247105,"name":"Sa??b","country":"JO","coord":{"lon":36.005009,"lat":31.87207}},{"id":247176,"name":"?ab??","country":"JO","coord":{"lon":36.50098,"lat":32.329651}},{"id":247340,"name":"Raym?n","country":"JO","coord":{"lon":35.825321,"lat":32.28339}},{"id":247496,"name":"Qumaym","country":"JO","coord":{"lon":35.732689,"lat":32.571339}},{"id":247659,"name":"Qafqaf?","country":"JO","coord":{"lon":35.939499,"lat":32.348309}},{"id":248055,"name":"Miq??","country":"JO","coord":{"lon":38.033329,"lat":32.466671}},{"id":248174,"name":"Marka","country":"JO","coord":{"lon":35.98333,"lat":31.98333}},{"id":248250,"name":"Malk?","country":"JO","coord":{"lon":35.75013,"lat":32.673809}},{"id":248311,"name":"A? ?af?w?","country":"JO","coord":{"lon":37.12513,"lat":32.193501}},{"id":248370,"name":"M?dab?","country":"JO","coord":{"lon":35.799999,"lat":31.716669}},{"id":248380,"name":"Mu??faz?at Ma??n","country":"JO","coord":{"lon":36.583328,"lat":30.33333}},{"id":248414,"name":"Kurayyimah","country":"JO","coord":{"lon":35.59938,"lat":32.27639}},{"id":248434,"name":"Kitim","country":"JO","coord":{"lon":35.89563,"lat":32.43832}},{"id":248627,"name":"Kharj?","country":"JO","coord":{"lon":35.886971,"lat":32.65873}},{"id":248719,"name":"Kafr Sawm","country":"JO","coord":{"lon":35.799999,"lat":32.683331}},{"id":248734,"name":"Kafr Asad","country":"JO","coord":{"lon":35.712399,"lat":32.598282}},{"id":248738,"name":"Kafr Ab?l","country":"JO","coord":{"lon":35.66938,"lat":32.417549}},{"id":248803,"name":"Judita","country":"JO","coord":{"lon":35.708019,"lat":32.407921}},{"id":248816,"name":"Hashemite Kingdom of Jordan","country":"JO","coord":{"lon":36,"lat":31}},{"id":248843,"name":"J?w?","country":"JO","coord":{"lon":35.939281,"lat":31.85247}},{"id":248875,"name":"Jarash","country":"JO","coord":{"lon":35.899288,"lat":32.280819}},{"id":248923,"name":"?Izr?","country":"JO","coord":{"lon":35.69278,"lat":31.15889}},{"id":248944,"name":"Irbid","country":"JO","coord":{"lon":35.833328,"lat":32.5}},{"id":248946,"name":"Irbid","country":"JO","coord":{"lon":35.849998,"lat":32.555561}},{"id":249184,"name":"??tim","country":"JO","coord":{"lon":35.777222,"lat":32.645191}},{"id":249310,"name":"?al?wah","country":"JO","coord":{"lon":35.661469,"lat":32.38464}},{"id":249318,"name":"?akam?","country":"JO","coord":{"lon":35.884109,"lat":32.594452}},{"id":249676,"name":"Dayr Y?suf","country":"JO","coord":{"lon":35.798729,"lat":32.491161}},{"id":249842,"name":"Bu?ayr?","country":"JO","coord":{"lon":35.60775,"lat":30.7376}},{"id":249849,"name":"Burm?","country":"JO","coord":{"lon":35.783939,"lat":32.219898}},{"id":249930,"name":"Bayt Y?f?","country":"JO","coord":{"lon":35.7883,"lat":32.517368}},{"id":249933,"name":"Bayt ?dis","country":"JO","coord":{"lon":35.69836,"lat":32.437599}},{"id":250052,"name":"Bal?l?","country":"JO","coord":{"lon":35.935051,"lat":32.388062}},{"id":250085,"name":"Az Zubayd?yah","country":"JO","coord":{"lon":36.295952,"lat":32.378719}},{"id":250090,"name":"Zarqa","country":"JO","coord":{"lon":36.087959,"lat":32.07275}},{"id":250092,"name":"Mu??faz?at az Zarq??","country":"JO","coord":{"lon":36.833328,"lat":31.83333}},{"id":250106,"name":"?Ayy","country":"JO","coord":{"lon":35.640831,"lat":31.133329}},{"id":250124,"name":"?Ayn Jannah","country":"JO","coord":{"lon":35.76189,"lat":32.335289}},{"id":250152,"name":"Ayd?n","country":"JO","coord":{"lon":35.857498,"lat":32.507221}},{"id":250179,"name":"A? ?urrah","country":"JO","coord":{"lon":35.99194,"lat":32.641392}},{"id":250186,"name":"A? ?ayyibah","country":"JO","coord":{"lon":35.716942,"lat":32.541672}},{"id":250187,"name":"Al Khinz?rah","country":"JO","coord":{"lon":35.601681,"lat":31.056721}},{"id":250188,"name":"A? ?ayyibah","country":"JO","coord":{"lon":35.459969,"lat":30.256611}},{"id":250198,"name":"A? ?af?lah","country":"JO","coord":{"lon":35.60442,"lat":30.837521}},{"id":250199,"name":"Mu??faz?at a? ?af?lah","country":"JO","coord":{"lon":35.583328,"lat":30.75}},{"id":250258,"name":"As Sal?","country":"JO","coord":{"lon":35.727219,"lat":32.039169}},{"id":250294,"name":"Ash Shajarah","country":"JO","coord":{"lon":35.940971,"lat":32.644562}},{"id":250303,"name":"Isf?r al Ma?a??ah","country":"JO","coord":{"lon":35.762859,"lat":30.179291}},{"id":250336,"name":"Ar Ramth?","country":"JO","coord":{"lon":36.006939,"lat":32.55917}},{"id":250345,"name":"Ar Rabbah","country":"JO","coord":{"lon":35.738289,"lat":31.26923}},{"id":250420,"name":"?Anjarah","country":"JO","coord":{"lon":35.756531,"lat":32.306301}},{"id":250439,"name":"Amman Governorate","country":"JO","coord":{"lon":36.333351,"lat":31.583691}},{"id":250441,"name":"Amman","country":"JO","coord":{"lon":35.94503,"lat":31.955219}},{"id":250461,"name":"?ayy al Quwaysimah","country":"JO","coord":{"lon":35.950001,"lat":31.9167}},{"id":250462,"name":"Al Quwayrah","country":"JO","coord":{"lon":35.3116,"lat":29.800449}},{"id":250487,"name":"Al Qa?r","country":"JO","coord":{"lon":35.744999,"lat":31.31444}},{"id":250540,"name":"Al Maz?r al Jan?b?","country":"JO","coord":{"lon":35.69611,"lat":31.065559}},{"id":250582,"name":"Mafraq","country":"JO","coord":{"lon":36.208038,"lat":32.342892}},{"id":250583,"name":"Al Mafraq","country":"JO","coord":{"lon":37.916672,"lat":32.333328}},{"id":250603,"name":"Al Kittah","country":"JO","coord":{"lon":35.841141,"lat":32.276852}},{"id":250623,"name":"Al Kar?mah","country":"JO","coord":{"lon":35.57917,"lat":31.952221}},{"id":250624,"name":"Q?r Mo?v","country":"JO","coord":{"lon":35.699989,"lat":31.18248}},{"id":250625,"name":"Al Karak","country":"JO","coord":{"lon":35.75,"lat":31.16667}},{"id":250637,"name":"Al Jubayhah","country":"JO","coord":{"lon":35.864578,"lat":32.02581}},{"id":250639,"name":"Al J?zah","country":"JO","coord":{"lon":35.957211,"lat":31.69968}},{"id":250649,"name":"Al Jafr","country":"JO","coord":{"lon":36.212151,"lat":30.294559}},{"id":250697,"name":"Al ?amr??","country":"JO","coord":{"lon":36.151211,"lat":32.440609}},{"id":250738,"name":"?ayy al Bunayy?t","country":"JO","coord":{"lon":35.893139,"lat":31.89299}},{"id":250751,"name":"Mu??faz?at al Balq??","country":"JO","coord":{"lon":35.666672,"lat":32}},{"id":250774,"name":"Aqaba","country":"JO","coord":{"lon":35.007778,"lat":29.52667}},{"id":250799,"name":"?Ajl?n","country":"JO","coord":{"lon":35.75238,"lat":32.333851}},{"id":250821,"name":"Adir","country":"JO","coord":{"lon":35.761551,"lat":31.202169}},{"id":443122,"name":"Mu??faz?at al ?Aqabah","country":"JO","coord":{"lon":35.333328,"lat":29.75}},{"id":443123,"name":"Mu??faz?at M?dab?","country":"JO","coord":{"lon":35.666672,"lat":31.58333}},{"id":6946409,"name":"Karak City","country":"JO","coord":{"lon":35.762039,"lat":31.163679}},{"id":7031355,"name":"Tall al Khal?fah","country":"JO","coord":{"lon":35.001839,"lat":29.557159}},{"id":7838895,"name":"Russeifa","country":"JO","coord":{"lon":36.046391,"lat":32.01778}},{"id":7838911,"name":"Ajloun","country":"JO","coord":{"lon":35.747841,"lat":32.330448}}]