[{"id":1821301,"name":"Pursat","country":"KH","coord":{"lon":103.666672,"lat":12.33333}},{"id":1821306,"name":"Phnom Penh","country":"KH","coord":{"lon":104.916008,"lat":11.56245}},{"id":1821310,"name":"Battambang","country":"KH","coord":{"lon":103.083328,"lat":12.91667}},{"id":1821453,"name":"Tu?l Tumpung","country":"KH","coord":{"lon":104.906281,"lat":11.55118}},{"id":1821935,"name":"Ta Khmau","country":"KH","coord":{"lon":104.949997,"lat":11.48333}},{"id":1821939,"name":"Takeo","country":"KH","coord":{"lon":104.833328,"lat":10.91667}},{"id":1821940,"name":"Takeo","country":"KH","coord":{"lon":104.783333,"lat":10.98333}},{"id":1821992,"name":"Svay Rieng","country":"KH","coord":{"lon":105.833328,"lat":11.16667}},{"id":1821993,"name":"Svay Rieng","country":"KH","coord":{"lon":105.799347,"lat":11.08785}},{"id":1822028,"name":"Stung Treng","country":"KH","coord":{"lon":106.25,"lat":13.75}},{"id":1822029,"name":"Stung Treng","country":"KH","coord":{"lon":105.9683,"lat":13.52586}},{"id":1822207,"name":"Sisophon","country":"KH","coord":{"lon":102.973686,"lat":13.58588}},{"id":1822213,"name":"Siem Reap","country":"KH","coord":{"lon":104,"lat":13.5}},{"id":1822214,"name":"Siem Reap","country":"KH","coord":{"lon":103.849998,"lat":13.36667}},{"id":1822227,"name":"Sen Monorom","country":"KH","coord":{"lon":107.199997,"lat":12.45}},{"id":1822449,"name":"Ratanakiri","country":"KH","coord":{"lon":107.116669,"lat":13.83333}},{"id":1822610,"name":"Prey Veng","country":"KH","coord":{"lon":105.325333,"lat":11.48682}},{"id":1822676,"name":"Preah Vihear","country":"KH","coord":{"lon":105,"lat":13.75}},{"id":1822768,"name":"Pursat","country":"KH","coord":{"lon":103.919197,"lat":12.53878}},{"id":1825049,"name":"Tuek Vil","country":"KH","coord":{"lon":103.80619,"lat":13.39364}},{"id":1825664,"name":"Phum? Prey Snu?l","country":"KH","coord":{"lon":104.842461,"lat":11.55681}},{"id":1826509,"name":"Phum? Phlov","country":"KH","coord":{"lon":104.560204,"lat":12.2549}},{"id":1828491,"name":"Phum D?ng Ta D?m","country":"KH","coord":{"lon":106.005692,"lat":13.53626}},{"id":1830098,"name":"Tbeng Meanchey","country":"KH","coord":{"lon":104.966667,"lat":13.81667}},{"id":1830103,"name":"Phnom Penh","country":"KH","coord":{"lon":104.866669,"lat":11.55}},{"id":1830194,"name":"Paoy Paet","country":"KH","coord":{"lon":102.5625,"lat":13.65611}},{"id":1830205,"name":"Pailin","country":"KH","coord":{"lon":102.609283,"lat":12.84895}},{"id":1830206,"name":"Pailin","country":"KH","coord":{"lon":102.599998,"lat":12.86667}},{"id":1830377,"name":"Lumphat","country":"KH","coord":{"lon":106.981583,"lat":13.48784}},{"id":1830467,"name":"Krong Kep","country":"KH","coord":{"lon":104.316673,"lat":10.48333}},{"id":1830468,"name":"Koh Kong","country":"KH","coord":{"lon":102.98056,"lat":11.6175}},{"id":1830563,"name":"Kratie","country":"KH","coord":{"lon":106.083328,"lat":12.66667}},{"id":1831037,"name":"Koh Kong","country":"KH","coord":{"lon":103.5,"lat":11.5}},{"id":1831095,"name":"Kandal","country":"KH","coord":{"lon":105,"lat":11.41667}},{"id":1831111,"name":"Kampot","country":"KH","coord":{"lon":104.333328,"lat":10.83333}},{"id":1831112,"name":"Kampot","country":"KH","coord":{"lon":104.183327,"lat":10.61667}},{"id":1831124,"name":"Kampong Thom","country":"KH","coord":{"lon":105,"lat":12.83333}},{"id":1831125,"name":"Kampong Thom","country":"KH","coord":{"lon":104.888733,"lat":12.71112}},{"id":1831132,"name":"Kampong Speu","country":"KH","coord":{"lon":104.333328,"lat":11.5}},{"id":1831133,"name":"Kampong Speu","country":"KH","coord":{"lon":104.533333,"lat":11.45}},{"id":1831142,"name":"Sihanoukville","country":"KH","coord":{"lon":103.529579,"lat":10.60932}},{"id":1831166,"name":"Kampong Chhnang","country":"KH","coord":{"lon":104.550003,"lat":12.16667}},{"id":1831167,"name":"Kampong Chhnang","country":"KH","coord":{"lon":104.666672,"lat":12.25}},{"id":1831172,"name":"Kampong Cham","country":"KH","coord":{"lon":105.583328,"lat":12.08333}},{"id":1831173,"name":"Kampong Cham","country":"KH","coord":{"lon":105.463501,"lat":11.99339}},{"id":1831722,"name":"Kingdom of Cambodia","country":"KH","coord":{"lon":105,"lat":13}},{"id":1831797,"name":"Battambang","country":"KH","coord":{"lon":103.198219,"lat":13.10271}},{"id":1899262,"name":"Preah Sihanouk","country":"KH","coord":{"lon":103.75,"lat":10.66667}},{"id":1899273,"name":"Banteay Meanchey","country":"KH","coord":{"lon":103,"lat":13.75}},{"id":6690237,"name":"Sen monorom","country":"KH","coord":{"lon":107.247681,"lat":12.44756}},{"id":6942076,"name":"Banlung","country":"KH","coord":{"lon":107.004517,"lat":13.7468}}]