[{"id":2448442,"name":"Yorosso","country":"ML","coord":{"lon":-4.7761,"lat":12.3536}},{"id":2448705,"name":"Wagaman","country":"ML","coord":{"lon":2.0368,"lat":15.45}},{"id":2449066,"name":"Tombouctou Region","country":"ML","coord":{"lon":-3,"lat":20}},{"id":2449067,"name":"Timbuktu","country":"ML","coord":{"lon":-3.00742,"lat":16.773479}},{"id":2449893,"name":"Tessalit","country":"ML","coord":{"lon":1.01139,"lat":20.19861}},{"id":2450173,"name":"Taoudenni","country":"ML","coord":{"lon":-3.98361,"lat":22.678329}},{"id":2450534,"name":"Tabakor","country":"ML","coord":{"lon":-0.01917,"lat":16.21944}},{"id":2450849,"name":"Sokolo","country":"ML","coord":{"lon":-6.1219,"lat":14.7328}},{"id":2451086,"name":"Sinsina","country":"ML","coord":{"lon":-5.44223,"lat":12.3516}},{"id":2451184,"name":"Sikasso Region","country":"ML","coord":{"lon":-7,"lat":10.91667}},{"id":2451185,"name":"Sikasso","country":"ML","coord":{"lon":-5.6697,"lat":11.3135}},{"id":2451274,"name":"Sialo","country":"ML","coord":{"lon":-4.4866,"lat":13.1996}},{"id":2451778,"name":"San","country":"ML","coord":{"lon":-4.89562,"lat":13.30335}},{"id":2452655,"name":"Niono","country":"ML","coord":{"lon":-5.993,"lat":14.2526}},{"id":2453347,"name":"Mopti Region","country":"ML","coord":{"lon":-4,"lat":14.66667}},{"id":2453348,"name":"Mopti","country":"ML","coord":{"lon":-4.1942,"lat":14.49302}},{"id":2453662,"name":"Markala","country":"ML","coord":{"lon":-6.0659,"lat":13.7021}},{"id":2453866,"name":"Republic of Mali","country":"ML","coord":{"lon":-4,"lat":17}},{"id":2454268,"name":"Koutiala","country":"ML","coord":{"lon":-5.46421,"lat":12.39173}},{"id":2454390,"name":"Kouoro","country":"ML","coord":{"lon":-5.70803,"lat":12.0146}},{"id":2454530,"name":"Koulikoro","country":"ML","coord":{"lon":-7.55985,"lat":12.86273}},{"id":2454532,"name":"Koulikoro Region","country":"ML","coord":{"lon":-7.75,"lat":14}},{"id":2454955,"name":"Kolokani","country":"ML","coord":{"lon":-8.0339,"lat":13.5728}},{"id":2455216,"name":"Kita","country":"ML","coord":{"lon":-9.4895,"lat":13.0349}},{"id":2455290,"name":"Kidal","country":"ML","coord":{"lon":1.40778,"lat":18.441111}},{"id":2455456,"name":"Kinmparana","country":"ML","coord":{"lon":-4.9199,"lat":12.8402}},{"id":2455516,"name":"Kayes Ndi","country":"ML","coord":{"lon":-11.4352,"lat":14.4586}},{"id":2455517,"name":"Kayes Region","country":"ML","coord":{"lon":-11,"lat":14}},{"id":2455518,"name":"Kayes","country":"ML","coord":{"lon":-11.4341,"lat":14.4417}},{"id":2455558,"name":"Kati","country":"ML","coord":{"lon":-8.07257,"lat":12.74409}},{"id":2455735,"name":"Kangaba","country":"ML","coord":{"lon":-8.41667,"lat":11.93333}},{"id":2456013,"name":"Kabara","country":"ML","coord":{"lon":-2.98302,"lat":16.704309}},{"id":2456917,"name":"Goundam","country":"ML","coord":{"lon":-3.67075,"lat":16.41453}},{"id":2457161,"name":"Gao Region","country":"ML","coord":{"lon":1.63696,"lat":16.63619}},{"id":2457163,"name":"Gao","country":"ML","coord":{"lon":-0.04472,"lat":16.271669}},{"id":2457331,"name":"Fougola","country":"ML","coord":{"lon":-11.2531,"lat":12.8465}},{"id":2458334,"name":"Douentza","country":"ML","coord":{"lon":-2.9517,"lat":14.9951}},{"id":2459775,"name":"Bougouni","country":"ML","coord":{"lon":-7.47899,"lat":11.41699}},{"id":2460377,"name":"Bankoumana","country":"ML","coord":{"lon":-5.77643,"lat":12.8383}},{"id":2460489,"name":"Bandiagara","country":"ML","coord":{"lon":-3.61038,"lat":14.35005}},{"id":2460546,"name":"Banamba","country":"ML","coord":{"lon":-7.45,"lat":13.55}},{"id":2460594,"name":"Bamako Region","country":"ML","coord":{"lon":-8,"lat":12.65}},{"id":2460596,"name":"Bamako","country":"ML","coord":{"lon":-8,"lat":12.65}},{"id":2460954,"name":"Araouane","country":"ML","coord":{"lon":-3.52649,"lat":18.90476}},{"id":2461003,"name":"Ansongo","country":"ML","coord":{"lon":0.5022,"lat":15.6597}},{"id":2597449,"name":"Kidal Region","country":"ML","coord":{"lon":1.08333,"lat":19.91667}},{"id":6759824,"name":"Nioro Rufis","country":"ML","coord":{"lon":-9.58726,"lat":15.24074}},{"id":6768610,"name":"Banguitaba","country":"ML","coord":{"lon":-4.082,"lat":14.51415}},{"id":6910806,"name":"Kala Dangan","country":"ML","coord":{"lon":-6.2699,"lat":13.4629}},{"id":6912297,"name":"Sikoroni","country":"ML","coord":{"lon":-9.277,"lat":13.0211}}]