[{"id":2562247,"name":"Marsaxlokk","country":"MT","coord":{"lon":14.54306,"lat":35.841942}},{"id":2562250,"name":"?urrieq","country":"MT","coord":{"lon":14.47417,"lat":35.831108}},{"id":2562258,"name":"?ejtun","country":"MT","coord":{"lon":14.53306,"lat":35.855831}},{"id":2562261,"name":"Haz-Zebbug","country":"MT","coord":{"lon":14.44111,"lat":35.871941}},{"id":2562266,"name":"?abbar","country":"MT","coord":{"lon":14.535,"lat":35.87611}},{"id":2562274,"name":"Xewkija","country":"MT","coord":{"lon":14.25806,"lat":36.03278}},{"id":2562280,"name":"Xag?ra","country":"MT","coord":{"lon":14.26444,"lat":36.049999}},{"id":2562305,"name":"Valletta","country":"MT","coord":{"lon":14.51472,"lat":35.899719}},{"id":2562320,"name":"Ta? Xbiex","country":"MT","coord":{"lon":14.49444,"lat":35.89917}},{"id":2562349,"name":"Tarxien","country":"MT","coord":{"lon":14.515,"lat":35.865829}},{"id":2562465,"name":"Ta? Danieli","country":"MT","coord":{"lon":14.48417,"lat":35.85667}},{"id":2562501,"name":"Sliema","country":"MT","coord":{"lon":14.50194,"lat":35.912498}},{"id":2562504,"name":"Si??iewi","country":"MT","coord":{"lon":14.43639,"lat":35.85556}},{"id":2562518,"name":"Santa Venera","country":"MT","coord":{"lon":14.47417,"lat":35.890831}},{"id":2562529,"name":"Santa Lu?ija","country":"MT","coord":{"lon":14.5075,"lat":35.862782}},{"id":2562541,"name":"San Pawl il-Ba?ar","country":"MT","coord":{"lon":14.41561,"lat":35.950642}},{"id":2562545,"name":"Sannat","country":"MT","coord":{"lon":14.24278,"lat":36.024441}},{"id":2562557,"name":"San ?iljan","country":"MT","coord":{"lon":14.48977,"lat":35.918388}},{"id":2562598,"name":"Safi","country":"MT","coord":{"lon":14.48472,"lat":35.833061}},{"id":2562617,"name":"Paola","country":"MT","coord":{"lon":14.49889,"lat":35.873058}},{"id":2562619,"name":"Victoria","country":"MT","coord":{"lon":14.23972,"lat":36.044441}},{"id":2562620,"name":"Rabat","country":"MT","coord":{"lon":14.39415,"lat":35.874168}},{"id":2562622,"name":"Qrendi","country":"MT","coord":{"lon":14.45833,"lat":35.834721}},{"id":2562629,"name":"Qormi","country":"MT","coord":{"lon":14.472,"lat":35.876011}},{"id":2562655,"name":"Qala","country":"MT","coord":{"lon":14.30944,"lat":36.03611}},{"id":2562683,"name":"Naxxar","country":"MT","coord":{"lon":14.44361,"lat":35.913609}},{"id":2562687,"name":"Nadur","country":"MT","coord":{"lon":14.29417,"lat":36.037781}},{"id":2562698,"name":"Imsida","country":"MT","coord":{"lon":14.48278,"lat":35.892502}},{"id":2562701,"name":"Mqabba","country":"MT","coord":{"lon":14.46824,"lat":35.84763}},{"id":2562704,"name":"Mosta","country":"MT","coord":{"lon":14.42556,"lat":35.909168}},{"id":2562734,"name":"M?arr","country":"MT","coord":{"lon":14.295,"lat":36.02528}},{"id":2562735,"name":"Im?arr","country":"MT","coord":{"lon":14.36639,"lat":35.920559}},{"id":2562744,"name":"Mellie?a","country":"MT","coord":{"lon":14.36222,"lat":35.95639}},{"id":2562746,"name":"Imdina","country":"MT","coord":{"lon":14.4025,"lat":35.88694}},{"id":2562755,"name":"Marsa","country":"MT","coord":{"lon":14.49528,"lat":35.879169}},{"id":2562770,"name":"Republic of Malta","country":"MT","coord":{"lon":14.43333,"lat":35.916672}},{"id":2562788,"name":"Luqa","country":"MT","coord":{"lon":14.48861,"lat":35.858891}},{"id":2562792,"name":"Senglea","country":"MT","coord":{"lon":14.51694,"lat":35.887501}},{"id":2562800,"name":"L-Iklin","country":"MT","coord":{"lon":14.45415,"lat":35.90414}},{"id":2562801,"name":"Lija","country":"MT","coord":{"lon":14.44639,"lat":35.900558}},{"id":2562815,"name":"Kirkop","country":"MT","coord":{"lon":14.48528,"lat":35.84222}},{"id":2562816,"name":"Ker?em","country":"MT","coord":{"lon":14.22667,"lat":36.041939}},{"id":2562830,"name":"Kalkara","country":"MT","coord":{"lon":14.53278,"lat":35.889172}},{"id":2562850,"name":"Swieqi","country":"MT","coord":{"lon":14.48,"lat":35.922501}},{"id":2562946,"name":"G?ira","country":"MT","coord":{"lon":14.48806,"lat":35.90583}},{"id":2562955,"name":"Floriana","country":"MT","coord":{"lon":14.50833,"lat":35.895828}},{"id":2562966,"name":"Vittoriosa","country":"MT","coord":{"lon":14.51833,"lat":35.89222}},{"id":2562998,"name":"?amrun","country":"MT","coord":{"lon":14.48444,"lat":35.88472}},{"id":2563015,"name":"?al-Bajjada","country":"MT","coord":{"lon":14.39583,"lat":35.878059}},{"id":2563020,"name":"Gudja","country":"MT","coord":{"lon":14.50306,"lat":35.849171}},{"id":2563046,"name":"G?axaq","country":"MT","coord":{"lon":14.51667,"lat":35.848888}},{"id":2563062,"name":"Hal Gharghur","country":"MT","coord":{"lon":14.45194,"lat":35.924171}},{"id":2563115,"name":"Fgura","country":"MT","coord":{"lon":14.51333,"lat":35.870281}},{"id":2563140,"name":"Dingli","country":"MT","coord":{"lon":14.38222,"lat":35.861389}},{"id":2563181,"name":"Cospicua","country":"MT","coord":{"lon":14.5275,"lat":35.885559}},{"id":2563189,"name":"Bir?ebbu?a","country":"MT","coord":{"lon":14.52694,"lat":35.825829}},{"id":2563191,"name":"Birkirkara","country":"MT","coord":{"lon":14.46111,"lat":35.897221}},{"id":2563217,"name":"Balzan","country":"MT","coord":{"lon":14.455,"lat":35.90028}},{"id":2563232,"name":"Attard","country":"MT","coord":{"lon":14.4425,"lat":35.889721}},{"id":2567539,"name":"Saint John","country":"MT","coord":{"lon":14.47611,"lat":35.90556}}]