[{"id":2137703,"name":"Wapan","country":"NC","coord":{"lon":167.449997,"lat":-22.566669}},{"id":2137735,"name":"Wacamadra","country":"NC","coord":{"lon":168.033325,"lat":-21.466669}},{"id":2137748,"name":"Voh","country":"NC","coord":{"lon":164.699997,"lat":-20.966669}},{"id":2137773,"name":"Vao","country":"NC","coord":{"lon":167.483337,"lat":-22.66667}},{"id":2137869,"name":"Touho","country":"NC","coord":{"lon":165.242264,"lat":-20.785971}},{"id":2137873,"name":"Touho","country":"NC","coord":{"lon":165.233337,"lat":-20.783331}},{"id":2138101,"name":"Thio","country":"NC","coord":{"lon":166.214554,"lat":-21.60573}},{"id":2138103,"name":"Thio","country":"NC","coord":{"lon":166.216675,"lat":-21.616671}},{"id":2138285,"name":"Tadine","country":"NC","coord":{"lon":167.883331,"lat":-21.549999}},{"id":2138410,"name":"Saint-Joseph","country":"NC","coord":{"lon":164.566666,"lat":-20.4}},{"id":2138519,"name":"Poya","country":"NC","coord":{"lon":165.163986,"lat":-21.34487}},{"id":2138522,"name":"Poya","country":"NC","coord":{"lon":165.149994,"lat":-21.35}},{"id":2138555,"name":"Poum","country":"NC","coord":{"lon":164.016663,"lat":-20.23333}},{"id":2138590,"name":"Pouembout","country":"NC","coord":{"lon":164.983414,"lat":-21.107559}},{"id":2138592,"name":"Pouembout","country":"NC","coord":{"lon":164.899994,"lat":-21.133329}},{"id":2138998,"name":"Pagou","country":"NC","coord":{"lon":164.266663,"lat":-20.549999}},{"id":2139104,"name":"Ouloup","country":"NC","coord":{"lon":166.583328,"lat":-20.65}},{"id":2139685,"name":"New Caledonia","country":"NC","coord":{"lon":165.5,"lat":-21.5}},{"id":2140066,"name":"Mont-Dore","country":"NC","coord":{"lon":166.583328,"lat":-22.283331}},{"id":2140438,"name":"Le Caillou","country":"NC","coord":{"lon":164.433334,"lat":-20.35}},{"id":2140464,"name":"Province Sud","country":"NC","coord":{"lon":165.833328,"lat":-21.75}},{"id":2140466,"name":"La Foa","country":"NC","coord":{"lon":165.827637,"lat":-21.710791}},{"id":2140550,"name":"Kumo","country":"NC","coord":{"lon":167.233337,"lat":-20.783331}},{"id":2140556,"name":"Koumac","country":"NC","coord":{"lon":164.271698,"lat":-20.55501}},{"id":2140558,"name":"Koumac","country":"NC","coord":{"lon":164.283325,"lat":-20.566669}},{"id":2140685,"name":"Province Nord","country":"NC","coord":{"lon":164.899994,"lat":-21.049999}},{"id":2140827,"name":"Karenga","country":"NC","coord":{"lon":166.233337,"lat":-22.01667}},{"id":2141314,"name":"Farino","country":"NC","coord":{"lon":165.77597,"lat":-21.665091}},{"id":2141316,"name":"Farino","country":"NC","coord":{"lon":165.766663,"lat":-21.66667}},{"id":2141658,"name":"Canala","country":"NC","coord":{"lon":165.949997,"lat":-21.533331}},{"id":2141714,"name":"Bourail","country":"NC","coord":{"lon":165.483337,"lat":-21.566669}},{"id":2141721,"name":"Bouloupari","country":"NC","coord":{"lon":166.051315,"lat":-21.860701}},{"id":2141722,"name":"Bouloupari","country":"NC","coord":{"lon":166.050003,"lat":-21.866671}},{"id":2141986,"name":"Bakouya","country":"NC","coord":{"lon":165.483337,"lat":-21.566669}}]