[{"id":752963,"name":"?yrzyn","country":"PL","coord":{"lon":22.0917,"lat":51.49918}},{"id":753004,"name":"Zwole?","country":"PL","coord":{"lon":21.587681,"lat":51.355419}},{"id":753020,"name":"Zwierzyniec","country":"PL","coord":{"lon":22.975121,"lat":50.613998}},{"id":753037,"name":"?urowa","country":"PL","coord":{"lon":21.16894,"lat":49.826359}},{"id":753053,"name":"?urawiczki","country":"PL","coord":{"lon":22.499491,"lat":50.013699}},{"id":753056,"name":"?urawica","country":"PL","coord":{"lon":22.789249,"lat":49.823479}},{"id":753130,"name":"?o?ynia","country":"PL","coord":{"lon":22.30825,"lat":50.161999}},{"id":753188,"name":"Zmiennica","country":"PL","coord":{"lon":21.96596,"lat":49.676521}},{"id":753221,"name":"Z?ota","country":"PL","coord":{"lon":20.593611,"lat":50.381599}},{"id":753222,"name":"Z?ota","country":"PL","coord":{"lon":20.69326,"lat":49.880589}},{"id":753276,"name":"Zielonka","country":"PL","coord":{"lon":21.160179,"lat":52.303761}},{"id":753319,"name":"Zg?obie?","country":"PL","coord":{"lon":21.8549,"lat":50.012699}},{"id":753395,"name":"?elechlinek","country":"PL","coord":{"lon":20.034599,"lat":51.712139}},{"id":753420,"name":"?egocina","country":"PL","coord":{"lon":20.41964,"lat":49.81395}},{"id":753531,"name":"Zbuczyn","country":"PL","coord":{"lon":22.43829,"lat":52.089741}},{"id":753571,"name":"Zbarz","country":"PL","coord":{"lon":20.98333,"lat":52.166672}},{"id":753611,"name":"Zawichost","country":"PL","coord":{"lon":21.85408,"lat":50.80743}},{"id":753702,"name":"Zatory","country":"PL","coord":{"lon":21.182581,"lat":52.599289}},{"id":753732,"name":"Zastawa","country":"PL","coord":{"lon":23.83333,"lat":52.700001}},{"id":753744,"name":"Zasanie","country":"PL","coord":{"lon":22.14476,"lat":50.546841}},{"id":753760,"name":"Zarzecze","country":"PL","coord":{"lon":22.195221,"lat":50.527672}},{"id":753762,"name":"Zarzecze","country":"PL","coord":{"lon":22.537161,"lat":49.986328}},{"id":753776,"name":"Zarszyn","country":"PL","coord":{"lon":22.012831,"lat":49.581779}},{"id":753854,"name":"Zan?cin","country":"PL","coord":{"lon":21.327551,"lat":52.15456}},{"id":753865,"name":"Zamo??","country":"PL","coord":{"lon":23.183331,"lat":50.833328}},{"id":753866,"name":"Zamo??","country":"PL","coord":{"lon":23.251961,"lat":50.723141}},{"id":753885,"name":"Zamch","country":"PL","coord":{"lon":23.027861,"lat":50.317131}},{"id":753910,"name":"Za?uski","country":"PL","coord":{"lon":20.528641,"lat":52.51152}},{"id":753911,"name":"Za?uski","country":"PL","coord":{"lon":20.937321,"lat":52.173569}},{"id":753943,"name":"Zaleszany","country":"PL","coord":{"lon":21.89069,"lat":50.647991}},{"id":753982,"name":"Zalesie","country":"PL","coord":{"lon":23.3636,"lat":52.03743}},{"id":754029,"name":"Zakrzew","country":"PL","coord":{"lon":21.001051,"lat":51.440948}},{"id":754066,"name":"Zakrzew","country":"PL","coord":{"lon":22.59115,"lat":50.890041}},{"id":754069,"name":"Zakroczym","country":"PL","coord":{"lon":20.61207,"lat":52.43351}},{"id":754092,"name":"Zakliczyn","country":"PL","coord":{"lon":20.809349,"lat":49.855888}},{"id":754148,"name":"Zagrody","country":"PL","coord":{"lon":22.83658,"lat":49.9519}},{"id":754210,"name":"Zagna?sk","country":"PL","coord":{"lon":20.663139,"lat":50.98037}},{"id":754233,"name":"Zadzia?","country":"PL","coord":{"lon":22.466669,"lat":49.383331}},{"id":754329,"name":"?abno","country":"PL","coord":{"lon":20.88615,"lat":50.133339}},{"id":754351,"name":"Z?bki","country":"PL","coord":{"lon":21.105391,"lat":52.292709}},{"id":754367,"name":"?abieniec","country":"PL","coord":{"lon":21.04817,"lat":52.058559}},{"id":754386,"name":"?abia Wola","country":"PL","coord":{"lon":20.69112,"lat":52.031689}},{"id":754456,"name":"Wyszki","country":"PL","coord":{"lon":22.98119,"lat":52.84129}},{"id":754479,"name":"Wysokie Mazowieckie","country":"PL","coord":{"lon":22.51712,"lat":52.916611}},{"id":754493,"name":"Wysokie","country":"PL","coord":{"lon":22.666,"lat":50.910931}},{"id":754499,"name":"Wysoka Strzy?owska","country":"PL","coord":{"lon":21.74074,"lat":49.830559}},{"id":754508,"name":"Wysoka G?ogowska","country":"PL","coord":{"lon":22.02124,"lat":50.160191}},{"id":754509,"name":"Wysoka","country":"PL","coord":{"lon":22.260019,"lat":50.044739}},{"id":754520,"name":"Wy?mierzyce","country":"PL","coord":{"lon":20.81394,"lat":51.624939}},{"id":754652,"name":"Wydminy","country":"PL","coord":{"lon":22.032391,"lat":53.981941}},{"id":754800,"name":"Wo?omin","country":"PL","coord":{"lon":21.242069,"lat":52.340061}},{"id":755090,"name":"Wola ?arczycka","country":"PL","coord":{"lon":22.250231,"lat":50.291199}},{"id":755098,"name":"Wola Zabierzowska","country":"PL","coord":{"lon":20.33217,"lat":50.072571}},{"id":755118,"name":"Wola Uhruska","country":"PL","coord":{"lon":23.62627,"lat":51.321388}},{"id":755143,"name":"Wola Sernicka","country":"PL","coord":{"lon":22.68351,"lat":51.44978}},{"id":755155,"name":"Wola R?bkowska","country":"PL","coord":{"lon":21.55818,"lat":51.90181}},{"id":755270,"name":"Wola Karczewska","country":"PL","coord":{"lon":21.39344,"lat":52.126572}},{"id":755276,"name":"Wola Jachowa","country":"PL","coord":{"lon":20.858141,"lat":50.845242}},{"id":755303,"name":"Wola D?bi?ska","country":"PL","coord":{"lon":20.687771,"lat":49.98214}},{"id":755327,"name":"Wola Batorska","country":"PL","coord":{"lon":20.266171,"lat":50.05262}},{"id":755369,"name":"Wojs?awice","country":"PL","coord":{"lon":23.546021,"lat":50.919159}},{"id":755390,"name":"Wojnicz","country":"PL","coord":{"lon":20.837851,"lat":49.958}},{"id":755421,"name":"Wojciechowice","country":"PL","coord":{"lon":21.58942,"lat":50.842258}},{"id":755436,"name":"Wojakowa","country":"PL","coord":{"lon":20.5616,"lat":49.80365}},{"id":755438,"name":"Wohy?","country":"PL","coord":{"lon":22.78582,"lat":51.75642}},{"id":755439,"name":"Wodzis?aw","country":"PL","coord":{"lon":20.1915,"lat":50.52047}},{"id":755442,"name":"Wodynie","country":"PL","coord":{"lon":21.95575,"lat":52.040401}},{"id":755474,"name":"W?odawa","country":"PL","coord":{"lon":23.549999,"lat":51.549999}},{"id":755502,"name":"Wizna","country":"PL","coord":{"lon":22.38241,"lat":53.195179}},{"id":755551,"name":"Wisznice","country":"PL","coord":{"lon":23.208361,"lat":51.789242}},{"id":755571,"name":"Wi?niowa","country":"PL","coord":{"lon":21.655081,"lat":49.868969}},{"id":755572,"name":"Wi?niowa","country":"PL","coord":{"lon":20.115021,"lat":49.7878}},{"id":755582,"name":"Wi?niew","country":"PL","coord":{"lon":22.293921,"lat":52.072651}},{"id":755593,"name":"Wi?lica","country":"PL","coord":{"lon":20.674379,"lat":50.348911}},{"id":755594,"name":"Wiskitki","country":"PL","coord":{"lon":20.387079,"lat":52.08831}},{"id":755609,"name":"Winnica","country":"PL","coord":{"lon":20.941139,"lat":52.643059}},{"id":755675,"name":"Wilko?az","country":"PL","coord":{"lon":22.35014,"lat":51.014729}},{"id":755692,"name":"Wilga","country":"PL","coord":{"lon":21.37751,"lat":51.852112}},{"id":755697,"name":"Wilczyce","country":"PL","coord":{"lon":21.657829,"lat":50.746941}},{"id":755722,"name":"Wilcza","country":"PL","coord":{"lon":22.788731,"lat":49.792351}},{"id":755754,"name":"Wietrzychowice","country":"PL","coord":{"lon":20.76502,"lat":50.190971}},{"id":755775,"name":"Wierzchos?awice","country":"PL","coord":{"lon":20.85677,"lat":50.02478}},{"id":755792,"name":"Wierzbno","country":"PL","coord":{"lon":21.85902,"lat":52.310081}},{"id":755797,"name":"Wierzbna","country":"PL","coord":{"lon":22.60128,"lat":50.033112}},{"id":755810,"name":"Wierzbica","country":"PL","coord":{"lon":21.08259,"lat":51.249401}},{"id":755823,"name":"Wierzawice","country":"PL","coord":{"lon":22.450899,"lat":50.236229}},{"id":755848,"name":"Wieniawa","country":"PL","coord":{"lon":20.794889,"lat":51.36171}},{"id":755855,"name":"Wielopole Skrzy?skie","country":"PL","coord":{"lon":21.61491,"lat":49.945641}},{"id":755873,"name":"Wielkie Oczy","country":"PL","coord":{"lon":23.16407,"lat":50.023571}},{"id":755883,"name":"Wielka Wie?","country":"PL","coord":{"lon":20.966551,"lat":51.071072}},{"id":755885,"name":"Wielka Wie?","country":"PL","coord":{"lon":20.82304,"lat":49.93631}},{"id":755886,"name":"Wieliszew","country":"PL","coord":{"lon":20.968269,"lat":52.451302}},{"id":755889,"name":"Wieliczka","country":"PL","coord":{"lon":20.06473,"lat":49.987381}},{"id":755907,"name":"Wielbark","country":"PL","coord":{"lon":20.946289,"lat":53.398579}},{"id":755919,"name":"Wieczfnia Ko?cielna","country":"PL","coord":{"lon":20.47637,"lat":53.195339}},{"id":755963,"name":"Wi?zownica","country":"PL","coord":{"lon":22.70668,"lat":50.080662}},{"id":756010,"name":"Weso?a","country":"PL","coord":{"lon":22.10029,"lat":49.79977}},{"id":756024,"name":"Weremie?","country":"PL","coord":{"lon":22.32937,"lat":49.453949}},{"id":756028,"name":"Werbkowice","country":"PL","coord":{"lon":23.764111,"lat":50.753731}},{"id":756037,"name":"Wejsuny Ma?e","country":"PL","coord":{"lon":21.61128,"lat":53.679878}},{"id":756045,"name":"W?grzce Wielkie","country":"PL","coord":{"lon":20.110821,"lat":50.014912}},{"id":756048,"name":"W?gorzewo","country":"PL","coord":{"lon":21.7372,"lat":54.215672}},{"id":756084,"name":"Wawrze?czyce","country":"PL","coord":{"lon":20.31612,"lat":50.110119}},{"id":756091,"name":"W?wolnica","country":"PL","coord":{"lon":22.146811,"lat":51.29467}},{"id":756106,"name":"W?sosz","country":"PL","coord":{"lon":22.319151,"lat":53.522091}},{"id":756135,"name":"Warsaw","country":"PL","coord":{"lon":21.01178,"lat":52.229771}},{"id":756151,"name":"Warka","country":"PL","coord":{"lon":21.19091,"lat":51.784302}},{"id":756227,"name":"Waksmund","country":"PL","coord":{"lon":20.07563,"lat":49.482071}},{"id":756258,"name":"W?chock","country":"PL","coord":{"lon":21.01243,"lat":51.07391}},{"id":756280,"name":"Ustrzyki Dolne","country":"PL","coord":{"lon":22.593809,"lat":49.430401}},{"id":756300,"name":"U?cie Ruskie","country":"PL","coord":{"lon":21.133329,"lat":49.51667}},{"id":756302,"name":"U?cie Gorlickie","country":"PL","coord":{"lon":21.13821,"lat":49.521919}},{"id":756311,"name":"Urzuty","country":"PL","coord":{"lon":20.6682,"lat":50.21228}},{"id":756313,"name":"Urzejowice","country":"PL","coord":{"lon":22.461889,"lat":50.011822}},{"id":756316,"name":"Urszulin","country":"PL","coord":{"lon":23.194799,"lat":51.393902}},{"id":756349,"name":"Ulica Starowiejska","country":"PL","coord":{"lon":22.297779,"lat":52.165588}},{"id":756354,"name":"U???","country":"PL","coord":{"lon":22.10741,"lat":51.591949}},{"id":756406,"name":"Uherce Mineralne","country":"PL","coord":{"lon":22.398291,"lat":49.46455}},{"id":756438,"name":"Tyszowce","country":"PL","coord":{"lon":23.69927,"lat":50.616989}},{"id":756456,"name":"Tyrawa Wo?oska","country":"PL","coord":{"lon":22.369881,"lat":49.577438}},{"id":756474,"name":"Tymbark","country":"PL","coord":{"lon":20.32539,"lat":49.728588}},{"id":756484,"name":"Tykocin","country":"PL","coord":{"lon":22.77457,"lat":53.205669}},{"id":756485,"name":"Tyczyn","country":"PL","coord":{"lon":22.033979,"lat":49.96384}},{"id":756507,"name":"Tworki","country":"PL","coord":{"lon":20.81978,"lat":52.173828}},{"id":756510,"name":"Twierdza","country":"PL","coord":{"lon":21.62916,"lat":49.833889}},{"id":756532,"name":"Turze Pole","country":"PL","coord":{"lon":22.004761,"lat":49.663288}},{"id":756567,"name":"Turo?? Ko?cielna","country":"PL","coord":{"lon":23.055321,"lat":53.014629}},{"id":756577,"name":"Turobin","country":"PL","coord":{"lon":22.742729,"lat":50.823669}},{"id":756627,"name":"Tuczna","country":"PL","coord":{"lon":23.4252,"lat":51.88028}},{"id":756629,"name":"Tucz?py","country":"PL","coord":{"lon":20.991871,"lat":50.516762}},{"id":756648,"name":"Trzydnik Du?y","country":"PL","coord":{"lon":22.133591,"lat":50.848869}},{"id":756679,"name":"Trzeme?nia","country":"PL","coord":{"lon":20.02207,"lat":49.827518}},{"id":756688,"name":"Trzebownisko","country":"PL","coord":{"lon":22.037121,"lat":50.078289}},{"id":756709,"name":"Trzcinica","country":"PL","coord":{"lon":21.4175,"lat":49.743011}},{"id":756734,"name":"Trzciana","country":"PL","coord":{"lon":21.33725,"lat":50.307709}},{"id":756735,"name":"Trzciana","country":"PL","coord":{"lon":21.838499,"lat":50.071899}},{"id":756736,"name":"Trzciana","country":"PL","coord":{"lon":20.374149,"lat":49.844849}},{"id":756748,"name":"Try?cza","country":"PL","coord":{"lon":22.550079,"lat":50.16087}},{"id":756769,"name":"Truskaw","country":"PL","coord":{"lon":20.78244,"lat":52.301239}},{"id":756771,"name":"Troszyn","country":"PL","coord":{"lon":21.730829,"lat":53.031151}},{"id":756819,"name":"Trawniki","country":"PL","coord":{"lon":22.998159,"lat":51.13633}},{"id":756824,"name":"Trablice","country":"PL","coord":{"lon":21.128771,"lat":51.352489}},{"id":756825,"name":"Tr?bki","country":"PL","coord":{"lon":21.599291,"lat":51.947922}},{"id":756826,"name":"Tr?bki","country":"PL","coord":{"lon":20.142401,"lat":49.962261}},{"id":756919,"name":"T?uszcz","country":"PL","coord":{"lon":21.43561,"lat":52.43058}},{"id":756933,"name":"Tereszpol","country":"PL","coord":{"lon":22.879801,"lat":50.583729}},{"id":756937,"name":"Tereszpol","country":"PL","coord":{"lon":22.933331,"lat":50.566669}},{"id":756938,"name":"Terespol","country":"PL","coord":{"lon":23.61614,"lat":52.0755}},{"id":756939,"name":"Teresin","country":"PL","coord":{"lon":20.416719,"lat":52.198872}},{"id":756980,"name":"Telatyn","country":"PL","coord":{"lon":23.83956,"lat":50.527119}},{"id":757020,"name":"Tarnowiec","country":"PL","coord":{"lon":20.986549,"lat":49.98164}},{"id":757021,"name":"Tarnowiec","country":"PL","coord":{"lon":21.57663,"lat":49.731079}},{"id":757033,"name":"Tarnobrzeg","country":"PL","coord":{"lon":21.679371,"lat":50.57304}},{"id":757044,"name":"Tarnawatka","country":"PL","coord":{"lon":23.395901,"lat":50.53154}},{"id":757062,"name":"Targowisko","country":"PL","coord":{"lon":20.896231,"lat":50.138401}},{"id":757063,"name":"Targowisko","country":"PL","coord":{"lon":20.293461,"lat":49.98473}},{"id":757071,"name":"Tarczyn","country":"PL","coord":{"lon":20.833941,"lat":51.981972}},{"id":757109,"name":"Taj?cina","country":"PL","coord":{"lon":22.01111,"lat":50.124649}},{"id":757135,"name":"Szynwa?d","country":"PL","coord":{"lon":21.122931,"lat":49.96767}},{"id":757152,"name":"Szymany","country":"PL","coord":{"lon":20.96357,"lat":53.48465}},{"id":757174,"name":"Szyd?owo","country":"PL","coord":{"lon":20.45071,"lat":53.08062}},{"id":757178,"name":"Szyd?owiec","country":"PL","coord":{"lon":20.861059,"lat":51.22823}},{"id":757214,"name":"Szumowo","country":"PL","coord":{"lon":22.08449,"lat":52.918839}},{"id":757240,"name":"Szre?sk","country":"PL","coord":{"lon":20.12009,"lat":53.012772}},{"id":757322,"name":"Szerzyny","country":"PL","coord":{"lon":21.2467,"lat":49.809189}},{"id":757335,"name":"Szepietowo","country":"PL","coord":{"lon":22.543921,"lat":52.870319}},{"id":757357,"name":"Szczytno","country":"PL","coord":{"lon":20.987471,"lat":53.562592}},{"id":757376,"name":"Szczurowa","country":"PL","coord":{"lon":20.636101,"lat":50.119148}},{"id":757386,"name":"Szczuczyn","country":"PL","coord":{"lon":22.285339,"lat":53.563301}},{"id":757388,"name":"Szczucin","country":"PL","coord":{"lon":21.07444,"lat":50.30957}},{"id":757452,"name":"Szczebrzeszyn","country":"PL","coord":{"lon":22.97954,"lat":50.694988}},{"id":757460,"name":"Szczawnica Ni?na","country":"PL","coord":{"lon":20.48333,"lat":49.433331}},{"id":757461,"name":"Szczawnica","country":"PL","coord":{"lon":20.484871,"lat":49.42437}},{"id":757472,"name":"Szastarka","country":"PL","coord":{"lon":22.3346,"lat":50.854939}},{"id":757512,"name":"Szaflary","country":"PL","coord":{"lon":20.02713,"lat":49.426552}},{"id":757531,"name":"Sypniewo","country":"PL","coord":{"lon":21.307301,"lat":53.005798}},{"id":757585,"name":"?wilcza","country":"PL","coord":{"lon":21.89798,"lat":50.071789}},{"id":757608,"name":"Swi?tajno","country":"PL","coord":{"lon":22.3183,"lat":54.001511}},{"id":757609,"name":"Swietajno","country":"PL","coord":{"lon":22.33297,"lat":54.038921}},{"id":757610,"name":"?wi?tajno","country":"PL","coord":{"lon":21.21546,"lat":53.566921}},{"id":757690,"name":"?widnik Ma?y","country":"PL","coord":{"lon":22.6805,"lat":51.256008}},{"id":757692,"name":"?widnik","country":"PL","coord":{"lon":22.696211,"lat":51.218979}},{"id":757718,"name":"Suwa?ki","country":"PL","coord":{"lon":22.93087,"lat":54.111752}},{"id":757735,"name":"Susiec","country":"PL","coord":{"lon":23.19626,"lat":50.419731}},{"id":757751,"name":"Sura?","country":"PL","coord":{"lon":22.95653,"lat":52.949081}},{"id":757758,"name":"Supra?l","country":"PL","coord":{"lon":23.33934,"lat":53.205261}},{"id":757782,"name":"Su?kowice","country":"PL","coord":{"lon":21.089291,"lat":51.9231}},{"id":757848,"name":"Sucho?ebry","country":"PL","coord":{"lon":22.25289,"lat":52.25948}},{"id":757850,"name":"Suchowola","country":"PL","coord":{"lon":23.105961,"lat":53.57753}},{"id":757894,"name":"Sucha","country":"PL","coord":{"lon":20.94887,"lat":51.619991}},{"id":757912,"name":"Stupsk","country":"PL","coord":{"lon":20.4368,"lat":53.022579}},{"id":757948,"name":"Stubno","country":"PL","coord":{"lon":22.95602,"lat":49.89806}},{"id":757953,"name":"Strzy?owice","country":"PL","coord":{"lon":22.44018,"lat":51.048302}},{"id":757993,"name":"Strzegowo","country":"PL","coord":{"lon":20.28548,"lat":52.89394}},{"id":758071,"name":"Stromiec","country":"PL","coord":{"lon":21.092291,"lat":51.646999}},{"id":758090,"name":"Strawczyn","country":"PL","coord":{"lon":20.42135,"lat":50.941769}},{"id":758091,"name":"Straszydle","country":"PL","coord":{"lon":21.981239,"lat":49.900379}},{"id":758110,"name":"Strachocina","country":"PL","coord":{"lon":22.08836,"lat":49.60815}},{"id":758116,"name":"Stopnica","country":"PL","coord":{"lon":20.937799,"lat":50.440182}},{"id":758157,"name":"Stoczek ?ukowski","country":"PL","coord":{"lon":21.971371,"lat":51.961349}},{"id":758162,"name":"Stoczek","country":"PL","coord":{"lon":21.900129,"lat":52.54332}},{"id":758175,"name":"St??yca","country":"PL","coord":{"lon":21.77087,"lat":51.581871}},{"id":758182,"name":"Sterdy?","country":"PL","coord":{"lon":22.293579,"lat":52.580261}},{"id":758238,"name":"Stawiski","country":"PL","coord":{"lon":22.154619,"lat":53.379871}},{"id":758242,"name":"Stawiguda","country":"PL","coord":{"lon":20.40041,"lat":53.6572}},{"id":758276,"name":"Stary Zamo??","country":"PL","coord":{"lon":23.171539,"lat":50.820042}},{"id":758278,"name":"Stary Wi?nicz","country":"PL","coord":{"lon":20.48641,"lat":49.92548}},{"id":758282,"name":"Stary S?cz","country":"PL","coord":{"lon":20.63496,"lat":49.563641}},{"id":758309,"name":"Starosielce","country":"PL","coord":{"lon":23.075291,"lat":53.13353}},{"id":758327,"name":"Stare Miasto","country":"PL","coord":{"lon":22.429279,"lat":50.288792}},{"id":758332,"name":"Stare Juchy","country":"PL","coord":{"lon":22.17367,"lat":53.921982}},{"id":758343,"name":"Stare Babice","country":"PL","coord":{"lon":20.83403,"lat":52.260281}},{"id":758371,"name":"Stara Wie?","country":"PL","coord":{"lon":22.00441,"lat":49.71505}},{"id":758390,"name":"Starachowice","country":"PL","coord":{"lon":21.07126,"lat":51.037399}},{"id":758435,"name":"Stanis?awice","country":"PL","coord":{"lon":20.351231,"lat":49.9855}},{"id":758445,"name":"Stalowa Wola","country":"PL","coord":{"lon":22.053341,"lat":50.582859}},{"id":758467,"name":"Srokowo","country":"PL","coord":{"lon":21.52282,"lat":54.214161}},{"id":758517,"name":"Spiczyn","country":"PL","coord":{"lon":22.75354,"lat":51.341282}},{"id":758548,"name":"Sosnowica","country":"PL","coord":{"lon":23.09215,"lat":51.520649}},{"id":758558,"name":"So?nica","country":"PL","coord":{"lon":22.874689,"lat":49.900829}},{"id":758574,"name":"So?sk","country":"PL","coord":{"lon":20.699011,"lat":52.781639}},{"id":758575,"name":"Sonina","country":"PL","coord":{"lon":22.265511,"lat":50.06089}},{"id":758577,"name":"Somianka","country":"PL","coord":{"lon":21.29339,"lat":52.560909}},{"id":758605,"name":"Solec Nad Wis??","country":"PL","coord":{"lon":21.765631,"lat":51.13633}},{"id":758624,"name":"Soko?y","country":"PL","coord":{"lon":22.7005,"lat":52.993141}},{"id":758646,"name":"Sokolniki","country":"PL","coord":{"lon":21.80649,"lat":50.638031}},{"id":758681,"name":"Sochocin","country":"PL","coord":{"lon":20.472589,"lat":52.687149}},{"id":758682,"name":"Sochaczew","country":"PL","coord":{"lon":20.23838,"lat":52.229439}},{"id":758697,"name":"Sobolew","country":"PL","coord":{"lon":21.66349,"lat":51.736599}},{"id":758715,"name":"Sobienie Jeziory","country":"PL","coord":{"lon":21.30335,"lat":51.932732}},{"id":758746,"name":"?niadowo","country":"PL","coord":{"lon":21.99077,"lat":53.038738}},{"id":758850,"name":"S?upno","country":"PL","coord":{"lon":21.15572,"lat":52.38409}},{"id":758853,"name":"S?upiec","country":"PL","coord":{"lon":21.193741,"lat":50.327869}},{"id":758857,"name":"S?upia","country":"PL","coord":{"lon":20.1406,"lat":51.013699}},{"id":758879,"name":"S?otwiny","country":"PL","coord":{"lon":20.950899,"lat":49.436951}},{"id":758883,"name":"S?otowa","country":"PL","coord":{"lon":21.29425,"lat":49.94603}},{"id":758887,"name":"S?opnice","country":"PL","coord":{"lon":20.34325,"lat":49.684959}},{"id":758905,"name":"S?omniki","country":"PL","coord":{"lon":20.082239,"lat":50.24012}},{"id":758952,"name":"S?awno","country":"PL","coord":{"lon":20.14043,"lat":51.392731}},{"id":758967,"name":"S?awek","country":"PL","coord":{"lon":21.25,"lat":52.349998}},{"id":758970,"name":"S?aw?cin","country":"PL","coord":{"lon":21.355961,"lat":49.75238}},{"id":758973,"name":"S?awatycze","country":"PL","coord":{"lon":23.5546,"lat":51.763378}},{"id":759022,"name":"Skrzydlna","country":"PL","coord":{"lon":20.18618,"lat":49.753429}},{"id":759065,"name":"Skorupy","country":"PL","coord":{"lon":23.180019,"lat":53.135239}},{"id":759083,"name":"Skopanie","country":"PL","coord":{"lon":21.57295,"lat":50.481899}},{"id":759092,"name":"Sko?yszyn","country":"PL","coord":{"lon":21.336651,"lat":49.74955}},{"id":759123,"name":"Skierniewice","country":"PL","coord":{"lon":20.158369,"lat":51.954849}},{"id":759140,"name":"Skar?ysko Ko?cielne","country":"PL","coord":{"lon":20.911961,"lat":51.138222}},{"id":759141,"name":"Skar?ysko-Kamienna","country":"PL","coord":{"lon":20.87162,"lat":51.11311}},{"id":759151,"name":"Skaryszew","country":"PL","coord":{"lon":21.252331,"lat":51.310749}},{"id":759172,"name":"Skalbmierz","country":"PL","coord":{"lon":20.39929,"lat":50.319931}},{"id":759180,"name":"Siwki","country":"PL","coord":{"lon":21.133329,"lat":52.316669}},{"id":759190,"name":"Sitno","country":"PL","coord":{"lon":23.3626,"lat":50.749439}},{"id":759194,"name":"Osiedle-Nowiny","country":"PL","coord":{"lon":20.54117,"lat":50.817699}},{"id":759203,"name":"Sio?kowa","country":"PL","coord":{"lon":20.93692,"lat":49.634109}},{"id":759234,"name":"Sietesz","country":"PL","coord":{"lon":22.34671,"lat":49.986221}},{"id":759266,"name":"Sieradza","country":"PL","coord":{"lon":20.92947,"lat":50.134991}},{"id":759275,"name":"Sienno","country":"PL","coord":{"lon":21.48325,"lat":51.08773}},{"id":759282,"name":"Siennica","country":"PL","coord":{"lon":21.619209,"lat":52.09164}},{"id":759301,"name":"Sieniawa","country":"PL","coord":{"lon":22.609541,"lat":50.177898}},{"id":759302,"name":"Sieniawa","country":"PL","coord":{"lon":21.927851,"lat":49.565079}},{"id":759316,"name":"Siemie?","country":"PL","coord":{"lon":22.77243,"lat":51.62883}},{"id":759320,"name":"Siemiatycze","country":"PL","coord":{"lon":22.86231,"lat":52.427189}},{"id":759325,"name":"Siemi?tkowo","country":"PL","coord":{"lon":20.028931,"lat":52.8811}},{"id":759398,"name":"Siedliska","country":"PL","coord":{"lon":21.94742,"lat":49.95409}},{"id":759399,"name":"Siedliska","country":"PL","coord":{"lon":20.99625,"lat":49.871632}},{"id":759409,"name":"Siedleczka","country":"PL","coord":{"lon":22.37949,"lat":49.960609}},{"id":759412,"name":"Siedlce","country":"PL","coord":{"lon":22.29006,"lat":52.167721}},{"id":759466,"name":"Serokomla","country":"PL","coord":{"lon":22.332371,"lat":51.700699}},{"id":759470,"name":"Serock","country":"PL","coord":{"lon":21.069099,"lat":52.510361}},{"id":759472,"name":"Serniki","country":"PL","coord":{"lon":22.658529,"lat":51.43716}},{"id":759482,"name":"S?popol","country":"PL","coord":{"lon":21.01453,"lat":54.269032}},{"id":759495,"name":"S?kowa","country":"PL","coord":{"lon":21.197689,"lat":49.622169}},{"id":759503,"name":"Sejny","country":"PL","coord":{"lon":23.346979,"lat":54.108021}},{"id":759534,"name":"Sawin","country":"PL","coord":{"lon":23.43375,"lat":51.274429}},{"id":759579,"name":"Sarnaki","country":"PL","coord":{"lon":22.89044,"lat":52.315041}},{"id":759591,"name":"Sanok","country":"PL","coord":{"lon":22.205601,"lat":49.555729}},{"id":759603,"name":"Sandomierz","country":"PL","coord":{"lon":21.74898,"lat":50.682652}},{"id":759631,"name":"Samborzec","country":"PL","coord":{"lon":21.64822,"lat":50.646629}},{"id":759678,"name":"Sadowne","country":"PL","coord":{"lon":21.845631,"lat":52.641239}},{"id":759680,"name":"Sadowie","country":"PL","coord":{"lon":21.368839,"lat":50.852612}},{"id":759689,"name":"Sadkowice","country":"PL","coord":{"lon":20.51465,"lat":51.72517}},{"id":759704,"name":"Sabnie","country":"PL","coord":{"lon":22.306971,"lat":52.500969}},{"id":759722,"name":"Rzezawa","country":"PL","coord":{"lon":20.515079,"lat":49.989971}},{"id":759726,"name":"Rzewnie","country":"PL","coord":{"lon":21.336821,"lat":52.835079}},{"id":759751,"name":"Rzepiennik Strzy?ewski","country":"PL","coord":{"lon":21.03599,"lat":49.80542}},{"id":759754,"name":"Rzeped?","country":"PL","coord":{"lon":22.11174,"lat":49.369968}},{"id":759757,"name":"Rzeku?","country":"PL","coord":{"lon":21.620689,"lat":53.047562}},{"id":759778,"name":"Rzeczyca","country":"PL","coord":{"lon":22.74942,"lat":51.96225}},{"id":759779,"name":"Rzeczyca","country":"PL","coord":{"lon":20.29484,"lat":51.59824}},{"id":759802,"name":"Rz??nik","country":"PL","coord":{"lon":21.36772,"lat":52.713322}},{"id":759814,"name":"Rytwiany","country":"PL","coord":{"lon":21.20636,"lat":50.529202}},{"id":759815,"name":"Rytro","country":"PL","coord":{"lon":20.666309,"lat":49.48904}},{"id":759839,"name":"Ryn","country":"PL","coord":{"lon":21.546419,"lat":53.937698}},{"id":759852,"name":"Ryki","country":"PL","coord":{"lon":21.932739,"lat":51.62574}},{"id":759859,"name":"Ryglice","country":"PL","coord":{"lon":21.13748,"lat":49.878868}},{"id":759895,"name":"Rybno","country":"PL","coord":{"lon":20.10301,"lat":52.242779}},{"id":759915,"name":"Rybie","country":"PL","coord":{"lon":20.93655,"lat":52.15229}},{"id":759922,"name":"Rybczewice","country":"PL","coord":{"lon":22.850531,"lat":51.028759}},{"id":759946,"name":"Rutki","country":"PL","coord":{"lon":22.433331,"lat":53.099998}},{"id":759993,"name":"Rury Jezuickie","country":"PL","coord":{"lon":22.566669,"lat":51.25}},{"id":760054,"name":"Rudnik","country":"PL","coord":{"lon":22.972931,"lat":50.880348}},{"id":760055,"name":"Rudnik nad Sanem","country":"PL","coord":{"lon":22.24856,"lat":50.441521}},{"id":760062,"name":"Rudna Wielka","country":"PL","coord":{"lon":21.94759,"lat":50.08799}},{"id":760063,"name":"Rudna Ma?a","country":"PL","coord":{"lon":21.960211,"lat":50.098888}},{"id":760084,"name":"Rudka","country":"PL","coord":{"lon":22.726761,"lat":52.724388}},{"id":760087,"name":"Rudka","country":"PL","coord":{"lon":21.328529,"lat":52.143242}},{"id":760123,"name":"Ruda Maleniecka","country":"PL","coord":{"lon":20.22377,"lat":51.14592}},{"id":760155,"name":"Ruda","country":"PL","coord":{"lon":22.383101,"lat":50.695148}},{"id":760166,"name":"Ruciane-Nida","country":"PL","coord":{"lon":21.53964,"lat":53.641609}},{"id":760182,"name":"Ro?wienica","country":"PL","coord":{"lon":22.59424,"lat":49.95277}},{"id":760203,"name":"Rozogi","country":"PL","coord":{"lon":21.36223,"lat":53.485489}},{"id":760308,"name":"Rossosz","country":"PL","coord":{"lon":23.1374,"lat":51.85836}},{"id":760318,"name":"Rososz","country":"PL","coord":{"lon":22.866671,"lat":51.283329}},{"id":760343,"name":"Ropczyce","country":"PL","coord":{"lon":21.60891,"lat":50.052292}},{"id":760347,"name":"Ropa","country":"PL","coord":{"lon":21.04431,"lat":49.591461}},{"id":760395,"name":"Rokitno","country":"PL","coord":{"lon":23.295139,"lat":52.121422}},{"id":760404,"name":"Rokietnica","country":"PL","coord":{"lon":22.64171,"lat":49.89983}},{"id":760488,"name":"Reszel","country":"PL","coord":{"lon":21.145849,"lat":54.050419}},{"id":760490,"name":"Repki","country":"PL","coord":{"lon":22.391171,"lat":52.385551}},{"id":760516,"name":"Rejowiec Fabryczny","country":"PL","coord":{"lon":23.24724,"lat":51.11414}},{"id":760518,"name":"Rejowiec","country":"PL","coord":{"lon":23.281919,"lat":51.091339}},{"id":760528,"name":"Regimin","country":"PL","coord":{"lon":20.55319,"lat":52.941662}},{"id":760584,"name":"Rawa Mazowiecka","country":"PL","coord":{"lon":20.25493,"lat":51.76437}},{"id":760607,"name":"Raszyn","country":"PL","coord":{"lon":20.9226,"lat":52.156029}},{"id":760632,"name":"Rakszawa","country":"PL","coord":{"lon":22.239071,"lat":50.160511}},{"id":760680,"name":"Radzy? Podlaski","country":"PL","coord":{"lon":22.616671,"lat":51.783329}},{"id":760684,"name":"Radzymin","country":"PL","coord":{"lon":21.184139,"lat":52.41592}},{"id":760711,"name":"Radziejowice","country":"PL","coord":{"lon":20.547701,"lat":52.008339}},{"id":760727,"name":"Radymno","country":"PL","coord":{"lon":22.82375,"lat":49.947201}},{"id":760745,"name":"Radoszyce","country":"PL","coord":{"lon":20.25836,"lat":51.073921}},{"id":760769,"name":"Radomy?l Wielki","country":"PL","coord":{"lon":21.27693,"lat":50.19693}},{"id":760771,"name":"Radomy?l","country":"PL","coord":{"lon":21.943649,"lat":50.681011}},{"id":760778,"name":"Radom","country":"PL","coord":{"lon":21.147141,"lat":51.402531}},{"id":760804,"name":"Radgoszcz","country":"PL","coord":{"lon":21.11315,"lat":50.205799}},{"id":760806,"name":"Radecznica","country":"PL","coord":{"lon":22.82976,"lat":50.751549}},{"id":760825,"name":"Raczki","country":"PL","coord":{"lon":22.78487,"lat":53.987492}},{"id":760830,"name":"Rac?awice","country":"PL","coord":{"lon":22.16552,"lat":50.513699}},{"id":760844,"name":"Raci??","country":"PL","coord":{"lon":20.117701,"lat":52.781521}},{"id":760853,"name":"Rachanie","country":"PL","coord":{"lon":23.546881,"lat":50.538422}},{"id":760871,"name":"Pysznica","country":"PL","coord":{"lon":22.129129,"lat":50.569988}},{"id":760892,"name":"Puszcza Maria?ska","country":"PL","coord":{"lon":20.35037,"lat":51.979012}},{"id":760909,"name":"Purda","country":"PL","coord":{"lon":20.706829,"lat":53.708439}},{"id":760914,"name":"Pu?sk","country":"PL","coord":{"lon":23.18124,"lat":54.251141}},{"id":760917,"name":"Pu?tusk","country":"PL","coord":{"lon":21.08276,"lat":52.702499}},{"id":760924,"name":"Pu?awy","country":"PL","coord":{"lon":21.969391,"lat":51.41655}},{"id":760987,"name":"Przytyk","country":"PL","coord":{"lon":20.90587,"lat":51.465672}},{"id":760999,"name":"Przytoczno","country":"PL","coord":{"lon":22.271351,"lat":51.619511}},{"id":761008,"name":"Przysucha","country":"PL","coord":{"lon":20.628889,"lat":51.358582}},{"id":761055,"name":"Przy??k","country":"PL","coord":{"lon":21.74744,"lat":51.308559}},{"id":761131,"name":"Przeworsk","country":"PL","coord":{"lon":22.49408,"lat":50.05912}},{"id":761145,"name":"Przesmyki","country":"PL","coord":{"lon":22.583941,"lat":52.268162}},{"id":761168,"name":"Przemy?l","country":"PL","coord":{"lon":22.767281,"lat":49.784981}},{"id":761187,"name":"Prz?dzel","country":"PL","coord":{"lon":22.21925,"lat":50.494652}},{"id":761193,"name":"Przedmie?cie Dubieckie","country":"PL","coord":{"lon":22.371771,"lat":49.837101}},{"id":761210,"name":"Przec?aw","country":"PL","coord":{"lon":21.48007,"lat":50.19339}},{"id":761218,"name":"Przasnysz","country":"PL","coord":{"lon":20.880289,"lat":53.01907}},{"id":761255,"name":"Pruchnik","country":"PL","coord":{"lon":22.515539,"lat":49.9062}},{"id":761258,"name":"Proszowice","country":"PL","coord":{"lon":20.289089,"lat":50.192749}},{"id":761262,"name":"Prostki","country":"PL","coord":{"lon":22.431829,"lat":53.699009}},{"id":761273,"name":"Promna","country":"PL","coord":{"lon":20.959169,"lat":51.680061}},{"id":761331,"name":"Pozezdrze","country":"PL","coord":{"lon":21.859699,"lat":54.141472}},{"id":761356,"name":"Potok Wielki","country":"PL","coord":{"lon":22.216419,"lat":50.7915}},{"id":761388,"name":"Po?wi?tne","country":"PL","coord":{"lon":21.42137,"lat":52.32967}},{"id":761390,"name":"Po?wi?tne","country":"PL","coord":{"lon":20.364531,"lat":51.532028}},{"id":761407,"name":"Posejny","country":"PL","coord":{"lon":23.357719,"lat":54.096111}},{"id":761425,"name":"Posada Dolna","country":"PL","coord":{"lon":21.868481,"lat":49.582668}},{"id":761437,"name":"Poronin","country":"PL","coord":{"lon":20.002911,"lat":49.337811}},{"id":761461,"name":"Por?ba Spytkowska","country":"PL","coord":{"lon":20.55405,"lat":49.939949}},{"id":761471,"name":"Por?ba","country":"PL","coord":{"lon":22.32004,"lat":50.354031}},{"id":761472,"name":"Por?ba","country":"PL","coord":{"lon":20.017179,"lat":49.796452}},{"id":761474,"name":"Pora?","country":"PL","coord":{"lon":22.225,"lat":49.48597}},{"id":761477,"name":"Por?bka Uszewska","country":"PL","coord":{"lon":20.690519,"lat":49.9426}},{"id":761546,"name":"Poniatowa","country":"PL","coord":{"lon":22.13093,"lat":51.179829}},{"id":761556,"name":"Pomorzany","country":"PL","coord":{"lon":21.13858,"lat":51.225239}},{"id":761582,"name":"Po?omia","country":"PL","coord":{"lon":21.891979,"lat":49.904751}},{"id":761607,"name":"Policzna","country":"PL","coord":{"lon":21.626841,"lat":51.455448}},{"id":761652,"name":"Po?aniec","country":"PL","coord":{"lon":21.2812,"lat":50.433239}},{"id":761653,"name":"Pola?czyk","country":"PL","coord":{"lon":22.42112,"lat":49.36969}},{"id":761663,"name":"Pokrzywnica","country":"PL","coord":{"lon":21.019251,"lat":52.62072}},{"id":761812,"name":"Pod???e","country":"PL","coord":{"lon":20.16781,"lat":50.01458}},{"id":761878,"name":"Podkowa Le?na","country":"PL","coord":{"lon":20.72665,"lat":52.122372}},{"id":761920,"name":"Podem?ynek","country":"PL","coord":{"lon":20.903521,"lat":51.123718}},{"id":761921,"name":"Podegrodzie","country":"PL","coord":{"lon":20.588551,"lat":49.576881}},{"id":761968,"name":"Pobitno","country":"PL","coord":{"lon":22.028191,"lat":50.04628}},{"id":761973,"name":"Poberezany","country":"PL","coord":{"lon":23.902809,"lat":50.79364}},{"id":761978,"name":"Pniewy","country":"PL","coord":{"lon":20.745781,"lat":51.91468}},{"id":762021,"name":"P?o?sk","country":"PL","coord":{"lon":20.375521,"lat":52.623482}},{"id":762032,"name":"P?oniawy-Bramura","country":"PL","coord":{"lon":21.071779,"lat":52.977798}},{"id":762056,"name":"Ple?na","country":"PL","coord":{"lon":20.945259,"lat":49.926418}},{"id":762071,"name":"P?awo","country":"PL","coord":{"lon":22.072769,"lat":50.569939}},{"id":762118,"name":"Piszczac","country":"PL","coord":{"lon":23.37719,"lat":51.981178}},{"id":762120,"name":"Pisz","country":"PL","coord":{"lon":21.812531,"lat":53.627441}},{"id":762126,"name":"Piskorowice","country":"PL","coord":{"lon":22.528669,"lat":50.23579}},{"id":762199,"name":"Pionki","country":"PL","coord":{"lon":21.449949,"lat":51.47604}},{"id":762203,"name":"Pilzno","country":"PL","coord":{"lon":21.29228,"lat":49.978828}},{"id":762223,"name":"Pilawa","country":"PL","coord":{"lon":21.53089,"lat":51.95945}},{"id":762275,"name":"Pierzchnica","country":"PL","coord":{"lon":20.75489,"lat":50.69754}},{"id":762311,"name":"Pieni??no","country":"PL","coord":{"lon":20.12833,"lat":54.236488}},{"id":762361,"name":"Piecki","country":"PL","coord":{"lon":21.33914,"lat":53.757591}},{"id":762366,"name":"Pi?tnica","country":"PL","coord":{"lon":22.095909,"lat":53.196571}},{"id":762390,"name":"Piaski","country":"PL","coord":{"lon":22.84856,"lat":51.13892}},{"id":762414,"name":"Piaski","country":"PL","coord":{"lon":20.23436,"lat":50.030022}},{"id":762423,"name":"Piaseczno","country":"PL","coord":{"lon":21.02397,"lat":52.081402}},{"id":762458,"name":"Perlejewo","country":"PL","coord":{"lon":22.564569,"lat":52.566761}},{"id":762556,"name":"Pawlikowice","country":"PL","coord":{"lon":20.054859,"lat":49.953098}},{"id":762588,"name":"Pasym","country":"PL","coord":{"lon":20.79188,"lat":53.650688}},{"id":762643,"name":"Parczew","country":"PL","coord":{"lon":22.90057,"lat":51.640209}},{"id":762661,"name":"Parady?","country":"PL","coord":{"lon":20.113741,"lat":51.306042}},{"id":762663,"name":"Paprotnia","country":"PL","coord":{"lon":22.46756,"lat":52.300709}},{"id":762664,"name":"Paprotnia","country":"PL","coord":{"lon":20.423201,"lat":52.205132}},{"id":762684,"name":"Pantalowice","country":"PL","coord":{"lon":22.435631,"lat":49.952099}},{"id":762734,"name":"Padew Narodowa","country":"PL","coord":{"lon":21.500589,"lat":50.439468}},{"id":762782,"name":"Owczarnia","country":"PL","coord":{"lon":20.704679,"lat":52.111141}},{"id":762788,"name":"Otwock","country":"PL","coord":{"lon":21.26129,"lat":52.10577}},{"id":762792,"name":"Otr?busy","country":"PL","coord":{"lon":20.760731,"lat":52.128429}},{"id":762841,"name":"Ostrowsko","country":"PL","coord":{"lon":20.100519,"lat":49.476158}},{"id":762863,"name":"Ostrowiec ?wi?tokrzyski","country":"PL","coord":{"lon":21.38525,"lat":50.929359}},{"id":762909,"name":"Ostro??ka","country":"PL","coord":{"lon":21.575661,"lat":53.086208}},{"id":762925,"name":"Ostoja","country":"PL","coord":{"lon":20.82316,"lat":52.153431}},{"id":763006,"name":"Osiek Jasielski","country":"PL","coord":{"lon":21.4884,"lat":49.63784}},{"id":763011,"name":"Osiek","country":"PL","coord":{"lon":21.441919,"lat":50.519958}},{"id":763013,"name":"Osieczany","country":"PL","coord":{"lon":19.982071,"lat":49.842522}},{"id":763014,"name":"Osieck","country":"PL","coord":{"lon":21.41913,"lat":51.96653}},{"id":763028,"name":"Orzysz","country":"PL","coord":{"lon":21.948111,"lat":53.809669}},{"id":763063,"name":"Oro?sko","country":"PL","coord":{"lon":20.990669,"lat":51.313389}},{"id":763066,"name":"Orneta","country":"PL","coord":{"lon":20.13328,"lat":54.11483}},{"id":763069,"name":"Or?y","country":"PL","coord":{"lon":22.80298,"lat":49.871071}},{"id":763094,"name":"Orla","country":"PL","coord":{"lon":23.33213,"lat":52.70546}},{"id":763107,"name":"Opole Lubelskie","country":"PL","coord":{"lon":21.968969,"lat":51.147751}},{"id":763111,"name":"Opoczno","country":"PL","coord":{"lon":20.278271,"lat":51.37569}},{"id":763120,"name":"Opatowiec","country":"PL","coord":{"lon":20.72348,"lat":50.243141}},{"id":763165,"name":"Olsztynek","country":"PL","coord":{"lon":20.28471,"lat":53.58374}},{"id":763166,"name":"Olsztyn","country":"PL","coord":{"lon":20.49416,"lat":53.779949}},{"id":763244,"name":"Olszanica","country":"PL","coord":{"lon":22.443821,"lat":49.477409}},{"id":763245,"name":"Olszana","country":"PL","coord":{"lon":20.521259,"lat":49.567478}},{"id":763249,"name":"O?piny","country":"PL","coord":{"lon":21.204639,"lat":49.806862}},{"id":763260,"name":"Oleszyce","country":"PL","coord":{"lon":23.034809,"lat":50.1675}},{"id":763263,"name":"Olesno","country":"PL","coord":{"lon":20.925779,"lat":50.201519}},{"id":763268,"name":"Ole?nica","country":"PL","coord":{"lon":21.064569,"lat":50.453571}},{"id":763291,"name":"Olecko","country":"PL","coord":{"lon":22.50704,"lat":54.033741}},{"id":763310,"name":"Olchowce","country":"PL","coord":{"lon":22.233049,"lat":49.55315}},{"id":763327,"name":"Oksa","country":"PL","coord":{"lon":20.100861,"lat":50.728741}},{"id":763351,"name":"Okocim","country":"PL","coord":{"lon":20.601601,"lat":49.948898}},{"id":763361,"name":"Ojrze?","country":"PL","coord":{"lon":20.54315,"lat":52.765701}},{"id":763401,"name":"Odrzyko?","country":"PL","coord":{"lon":21.74074,"lat":49.74057}},{"id":763440,"name":"Ochotnica Dolna","country":"PL","coord":{"lon":20.342649,"lat":49.526821}},{"id":763451,"name":"Obsza","country":"PL","coord":{"lon":22.956881,"lat":50.315201}},{"id":763454,"name":"Obryte","country":"PL","coord":{"lon":21.249451,"lat":52.716331}},{"id":763471,"name":"Obozisko","country":"PL","coord":{"lon":21.15,"lat":51.416672}},{"id":763510,"name":"Nurzec-Stacja","country":"PL","coord":{"lon":23.085711,"lat":52.46249}},{"id":763513,"name":"Nur","country":"PL","coord":{"lon":22.322069,"lat":52.668259}},{"id":763517,"name":"Nozdrzec","country":"PL","coord":{"lon":22.19865,"lat":49.773232}},{"id":763521,"name":"Nowy Wi?nicz","country":"PL","coord":{"lon":20.46109,"lat":49.91465}},{"id":763523,"name":"Nowy Targ","country":"PL","coord":{"lon":20.03228,"lat":49.477829}},{"id":763534,"name":"Nowy S?cz","country":"PL","coord":{"lon":20.69705,"lat":49.621769}},{"id":763545,"name":"Nowy Korczyn","country":"PL","coord":{"lon":20.80759,"lat":50.301239}},{"id":763585,"name":"Nowosielce-Gniewosz","country":"PL","coord":{"lon":22.069469,"lat":49.56842}},{"id":763586,"name":"Nowosielce","country":"PL","coord":{"lon":22.410561,"lat":50.057468}},{"id":763650,"name":"Nowe Sio?o","country":"PL","coord":{"lon":23.15884,"lat":50.231941}},{"id":763659,"name":"Nowe Miasto nad Pilic?","country":"PL","coord":{"lon":20.576191,"lat":51.618118}},{"id":763661,"name":"Nowe Miasto","country":"PL","coord":{"lon":20.62838,"lat":52.65691}},{"id":763676,"name":"Nowe Brzesko","country":"PL","coord":{"lon":20.376631,"lat":50.132221}},{"id":763719,"name":"Nowa Wie?","country":"PL","coord":{"lon":20.79192,"lat":52.583839}},{"id":763764,"name":"Nowa S?upia","country":"PL","coord":{"lon":21.09049,"lat":50.864319}},{"id":763765,"name":"Nowa Sarzyna","country":"PL","coord":{"lon":22.344561,"lat":50.320862}},{"id":763783,"name":"Nowa D?ba","country":"PL","coord":{"lon":21.75078,"lat":50.429741}},{"id":763823,"name":"Niwiska","country":"PL","coord":{"lon":21.63036,"lat":50.224918}},{"id":763829,"name":"Nisko","country":"PL","coord":{"lon":22.139681,"lat":50.519871}},{"id":763901,"name":"Niepor?t","country":"PL","coord":{"lon":21.03212,"lat":52.431519}},{"id":763903,"name":"Niepo?omice","country":"PL","coord":{"lon":20.22257,"lat":50.040661}},{"id":763914,"name":"Nienadowa","country":"PL","coord":{"lon":22.42704,"lat":49.82901}},{"id":763945,"name":"Niemce","country":"PL","coord":{"lon":22.639391,"lat":51.361549}},{"id":763946,"name":"Nielisz","country":"PL","coord":{"lon":23.04451,"lat":50.800671}},{"id":763981,"name":"Nied?wied?","country":"PL","coord":{"lon":20.093559,"lat":50.224041}},{"id":763982,"name":"Nied?wied?","country":"PL","coord":{"lon":20.07794,"lat":49.620998}},{"id":763987,"name":"Nied?wiada","country":"PL","coord":{"lon":22.691401,"lat":51.54409}},{"id":763989,"name":"Nied?wiada","country":"PL","coord":{"lon":21.52162,"lat":49.989368}},{"id":763992,"name":"Niedzica","country":"PL","coord":{"lon":20.302731,"lat":49.41008}},{"id":764000,"name":"Niedrzwica Du?a","country":"PL","coord":{"lon":22.389111,"lat":51.11462}},{"id":764002,"name":"Niedomice","country":"PL","coord":{"lon":20.895479,"lat":50.107368}},{"id":764026,"name":"Niechobrz","country":"PL","coord":{"lon":21.878241,"lat":49.99472}},{"id":764028,"name":"Niebylec","country":"PL","coord":{"lon":21.903481,"lat":49.856689}},{"id":764034,"name":"Niebocko","country":"PL","coord":{"lon":22.104839,"lat":49.677738}},{"id":764036,"name":"Niebieszczany","country":"PL","coord":{"lon":22.156509,"lat":49.503479}},{"id":764039,"name":"Nidzica","country":"PL","coord":{"lon":20.42749,"lat":53.360519}},{"id":764067,"name":"Nawojowa","country":"PL","coord":{"lon":20.739269,"lat":49.56686}},{"id":764100,"name":"Nasielsk","country":"PL","coord":{"lon":20.805531,"lat":52.588871}},{"id":764107,"name":"Naruszewo","country":"PL","coord":{"lon":20.35157,"lat":52.526871}},{"id":764117,"name":"Narol","country":"PL","coord":{"lon":23.32679,"lat":50.349251}},{"id":764125,"name":"Narew","country":"PL","coord":{"lon":23.51984,"lat":52.914181}},{"id":764168,"name":"Nag?owice","country":"PL","coord":{"lon":20.106609,"lat":50.678349}},{"id":764194,"name":"Nadarzyn","country":"PL","coord":{"lon":20.80776,"lat":52.094379}},{"id":764204,"name":"Myszyniec","country":"PL","coord":{"lon":21.349609,"lat":53.38055}},{"id":764226,"name":"Mysiad?o","country":"PL","coord":{"lon":21.01856,"lat":52.102161}},{"id":764241,"name":"Muszyna","country":"PL","coord":{"lon":20.897181,"lat":49.356609}},{"id":764276,"name":"Mszana Dolna","country":"PL","coord":{"lon":20.07992,"lat":49.67432}},{"id":764292,"name":"Mrozy","country":"PL","coord":{"lon":21.802629,"lat":52.166088}},{"id":764293,"name":"Mrozy","country":"PL","coord":{"lon":20.36702,"lat":52.019749}},{"id":764312,"name":"Mr?gowo","country":"PL","coord":{"lon":21.305071,"lat":53.864368}},{"id":764343,"name":"Moszczenica","country":"PL","coord":{"lon":21.092381,"lat":49.736679}},{"id":764401,"name":"Morgowniki","country":"PL","coord":{"lon":21.86245,"lat":53.233528}},{"id":764407,"name":"Mordy","country":"PL","coord":{"lon":22.51725,"lat":52.211601}},{"id":764411,"name":"Morawsko","country":"PL","coord":{"lon":22.69754,"lat":49.9702}},{"id":764414,"name":"Morawica","country":"PL","coord":{"lon":20.617559,"lat":50.74678}},{"id":764421,"name":"Mo?ki","country":"PL","coord":{"lon":22.797911,"lat":53.404961}},{"id":764486,"name":"Mokobody","country":"PL","coord":{"lon":22.11182,"lat":52.265228}},{"id":764488,"name":"Mokas","country":"PL","coord":{"lon":20.329,"lat":52.273201}},{"id":764494,"name":"Mojcza","country":"PL","coord":{"lon":20.682671,"lat":50.84}},{"id":764502,"name":"Mogielnica","country":"PL","coord":{"lon":20.722269,"lat":51.694321}},{"id":764531,"name":"Modliborzyce","country":"PL","coord":{"lon":22.329451,"lat":50.754162}},{"id":764602,"name":"M?ynarze","country":"PL","coord":{"lon":21.411409,"lat":52.95417}},{"id":764606,"name":"M?odzieszyn","country":"PL","coord":{"lon":20.200171,"lat":52.29945}},{"id":764634,"name":"M?awa","country":"PL","coord":{"lon":20.3841,"lat":53.112782}},{"id":764659,"name":"Mirzec","country":"PL","coord":{"lon":21.0571,"lat":51.134659}},{"id":764666,"name":"Mirocin","country":"PL","coord":{"lon":22.55596,"lat":50.04237}},{"id":764670,"name":"Mircze","country":"PL","coord":{"lon":23.89604,"lat":50.651642}},{"id":764679,"name":"Mi?sk Mazowiecki","country":"PL","coord":{"lon":21.57251,"lat":52.179352}},{"id":764741,"name":"Milejczyce","country":"PL","coord":{"lon":23.132059,"lat":52.519669}},{"id":764752,"name":"Mi?akowo","country":"PL","coord":{"lon":20.071251,"lat":54.009232}},{"id":764758,"name":"Miku?owice","country":"PL","coord":{"lon":20.06139,"lat":51.351639}},{"id":764777,"name":"Miko?ajki","country":"PL","coord":{"lon":21.57011,"lat":53.802879}},{"id":764791,"name":"Mi?tne","country":"PL","coord":{"lon":21.57457,"lat":51.921349}},{"id":764849,"name":"Mielec","country":"PL","coord":{"lon":21.423901,"lat":50.28709}},{"id":764860,"name":"Miejsce Piastowe","country":"PL","coord":{"lon":21.78735,"lat":49.634399}},{"id":764862,"name":"Mi?dzyrzec Podlaski","country":"PL","coord":{"lon":22.78248,"lat":51.986401}},{"id":764876,"name":"Miedzna","country":"PL","coord":{"lon":22.08947,"lat":52.467781}},{"id":764936,"name":"Micha?owo","country":"PL","coord":{"lon":23.609961,"lat":53.03492}},{"id":764947,"name":"Micha?owice","country":"PL","coord":{"lon":20.88089,"lat":52.174351}},{"id":764999,"name":"Mi?czyn","country":"PL","coord":{"lon":23.501301,"lat":50.738251}},{"id":765017,"name":"Me?giew","country":"PL","coord":{"lon":22.78414,"lat":51.225189}},{"id":765028,"name":"Medyka","country":"PL","coord":{"lon":22.922291,"lat":49.80526}},{"id":765106,"name":"Maszkienice","country":"PL","coord":{"lon":20.686569,"lat":49.989201}},{"id":765159,"name":"Marymont","country":"PL","coord":{"lon":20.96874,"lat":52.27993}},{"id":765188,"name":"Markowa","country":"PL","coord":{"lon":22.3316,"lat":50.026329}},{"id":765191,"name":"Marki","country":"PL","coord":{"lon":21.10474,"lat":52.320648}},{"id":765274,"name":"Maniowy","country":"PL","coord":{"lon":20.26454,"lat":49.459759}},{"id":765279,"name":"Manasterz","country":"PL","coord":{"lon":22.34602,"lat":49.9352}},{"id":765286,"name":"Ma?y P?ock","country":"PL","coord":{"lon":22.02836,"lat":53.303848}},{"id":765313,"name":"Ma?ogoszcz","country":"PL","coord":{"lon":20.264071,"lat":50.812141}},{"id":765600,"name":"Maciejowice","country":"PL","coord":{"lon":21.553419,"lat":51.692219}},{"id":765639,"name":"Jeziorzany","country":"PL","coord":{"lon":22.27667,"lat":51.602451}},{"id":765642,"name":"?yse","country":"PL","coord":{"lon":21.564871,"lat":53.364429}},{"id":765673,"name":"?u?na","country":"PL","coord":{"lon":21.04637,"lat":49.712879}},{"id":765681,"name":"Lutowiska","country":"PL","coord":{"lon":22.69252,"lat":49.253181}},{"id":765683,"name":"Lutory?","country":"PL","coord":{"lon":21.912399,"lat":49.967121}},{"id":765736,"name":"?ukowica","country":"PL","coord":{"lon":20.482889,"lat":49.611099}},{"id":765745,"name":"?ukowa","country":"PL","coord":{"lon":22.943489,"lat":50.37426}},{"id":765747,"name":"?ukowa","country":"PL","coord":{"lon":20.975479,"lat":50.092999}},{"id":765804,"name":"Ludwin","country":"PL","coord":{"lon":22.905809,"lat":51.34605}},{"id":765854,"name":"Lubomino","country":"PL","coord":{"lon":20.239559,"lat":54.066841}},{"id":765857,"name":"Lubomierz","country":"PL","coord":{"lon":20.202141,"lat":49.60854}},{"id":765863,"name":"Lubochnia","country":"PL","coord":{"lon":20.053909,"lat":51.607941}},{"id":765871,"name":"?ubnice","country":"PL","coord":{"lon":21.150141,"lat":50.41164}},{"id":765876,"name":"Lublin","country":"PL","coord":{"lon":22.566669,"lat":51.25}},{"id":765914,"name":"Lubenia","country":"PL","coord":{"lon":21.926649,"lat":49.930779}},{"id":765957,"name":"?ososina Dolna","country":"PL","coord":{"lon":20.63129,"lat":49.749771}},{"id":765976,"name":"?osice","country":"PL","coord":{"lon":22.71801,"lat":52.211288}},{"id":765981,"name":"?opuszno","country":"PL","coord":{"lon":20.250811,"lat":50.948639}},{"id":765983,"name":"?opuszna","country":"PL","coord":{"lon":20.130211,"lat":49.472809}},{"id":765984,"name":"?opuszka Wielka","country":"PL","coord":{"lon":22.393049,"lat":49.93454}},{"id":766023,"name":"?om?yca","country":"PL","coord":{"lon":22.03982,"lat":53.17382}},{"id":766027,"name":"?om?a","country":"PL","coord":{"lon":22.059349,"lat":53.178059}},{"id":766041,"name":"?omianki Dolne","country":"PL","coord":{"lon":20.90514,"lat":52.35408}},{"id":766042,"name":"?omianki","country":"PL","coord":{"lon":20.886021,"lat":52.334129}},{"id":766044,"name":"?omazy","country":"PL","coord":{"lon":23.176559,"lat":51.90435}},{"id":766057,"name":"?oje","country":"PL","coord":{"lon":22.5618,"lat":54.28046}},{"id":766090,"name":"Liw","country":"PL","coord":{"lon":21.96768,"lat":52.375149}},{"id":766137,"name":"Lipsko","country":"PL","coord":{"lon":21.64933,"lat":51.159538}},{"id":766142,"name":"Lipsk","country":"PL","coord":{"lon":23.40225,"lat":53.73312}},{"id":766162,"name":"Lipowiec Ko?cielny","country":"PL","coord":{"lon":20.17639,"lat":53.104591}},{"id":766191,"name":"Lipinki","country":"PL","coord":{"lon":21.292879,"lat":49.672958}},{"id":766193,"name":"Lipnik","country":"PL","coord":{"lon":21.493891,"lat":50.729771}},{"id":766197,"name":"Lipnik","country":"PL","coord":{"lon":20.084551,"lat":49.789021}},{"id":766201,"name":"Lipnica Wielka","country":"PL","coord":{"lon":20.868441,"lat":49.704891}},{"id":766210,"name":"Lipnica","country":"PL","coord":{"lon":21.888109,"lat":50.289391}},{"id":766237,"name":"Nowe Lipiny","country":"PL","coord":{"lon":21.27125,"lat":52.357891}},{"id":766301,"name":"Limanowa","country":"PL","coord":{"lon":20.422041,"lat":49.70594}},{"id":766303,"name":"Likusy","country":"PL","coord":{"lon":20.4345,"lat":53.795681}},{"id":766307,"name":"Lidzbark Warmi?ski","country":"PL","coord":{"lon":20.57954,"lat":54.125881}},{"id":766332,"name":"Le?ajsk","country":"PL","coord":{"lon":22.419319,"lat":50.262569}},{"id":766357,"name":"??townia","country":"PL","coord":{"lon":22.234011,"lat":50.32481}},{"id":766369,"name":"Lesznowola","country":"PL","coord":{"lon":20.93479,"lat":52.09095}},{"id":766373,"name":"Leszno","country":"PL","coord":{"lon":20.591209,"lat":52.257992}},{"id":766376,"name":"Leszczyny","country":"PL","coord":{"lon":21.64802,"lat":51.90115}},{"id":766435,"name":"Le?nica","country":"PL","coord":{"lon":20.060011,"lat":49.400921}},{"id":766441,"name":"Le?na Podlaska","country":"PL","coord":{"lon":23.027861,"lat":52.133171}},{"id":766452,"name":"Lesko","country":"PL","coord":{"lon":22.33042,"lat":49.4701}},{"id":766507,"name":"Lelkowo","country":"PL","coord":{"lon":20.2248,"lat":54.324581}},{"id":766523,"name":"??ki Dolne","country":"PL","coord":{"lon":21.247391,"lat":49.973862}},{"id":766528,"name":"??ki","country":"PL","coord":{"lon":21.660231,"lat":49.809959}},{"id":766555,"name":"Legionowo","country":"PL","coord":{"lon":20.92664,"lat":52.401489}},{"id":766573,"name":"Lednica Niemiecka","country":"PL","coord":{"lon":20.066669,"lat":49.98333}},{"id":766583,"name":"??czna","country":"PL","coord":{"lon":22.88135,"lat":51.301208}},{"id":766585,"name":"Lecka","country":"PL","coord":{"lon":22.01368,"lat":49.878601}},{"id":766588,"name":"Lechuty","country":"PL","coord":{"lon":23.574381,"lat":52.078831}},{"id":766642,"name":"?aziska","country":"PL","coord":{"lon":21.87919,"lat":51.142262}},{"id":766675,"name":"Latowicz","country":"PL","coord":{"lon":21.80829,"lat":52.02636}},{"id":766686,"name":"Laszki","country":"PL","coord":{"lon":22.899969,"lat":50.020199}},{"id":766734,"name":"Laskowa","country":"PL","coord":{"lon":20.450451,"lat":49.761471}},{"id":766757,"name":"?askarzew","country":"PL","coord":{"lon":21.591221,"lat":51.789928}},{"id":766774,"name":"?apy Zi?ciuki","country":"PL","coord":{"lon":22.86302,"lat":52.985561}},{"id":766783,"name":"?apy","country":"PL","coord":{"lon":22.88422,"lat":52.9911}},{"id":766786,"name":"?apsze Ni?ne","country":"PL","coord":{"lon":20.243429,"lat":49.398071}},{"id":766790,"name":"?apiguz","country":"PL","coord":{"lon":22.356779,"lat":51.924782}},{"id":766793,"name":"?apczyca","country":"PL","coord":{"lon":20.384451,"lat":49.959942}},{"id":766810,"name":"?a?cut","country":"PL","coord":{"lon":22.22912,"lat":50.06871}},{"id":766867,"name":"??czna","country":"PL","coord":{"lon":20.797119,"lat":51.002312}},{"id":766869,"name":"??czki Jagiello?skie","country":"PL","coord":{"lon":21.6919,"lat":49.788471}},{"id":766877,"name":"??cko","country":"PL","coord":{"lon":20.43586,"lat":49.557571}},{"id":766896,"name":"?abunie","country":"PL","coord":{"lon":23.366199,"lat":50.65517}},{"id":766899,"name":"?abowa","country":"PL","coord":{"lon":20.854971,"lat":49.52766}},{"id":766919,"name":"Kwiatkowice","country":"PL","coord":{"lon":22.24124,"lat":50.9179}},{"id":766927,"name":"Ku?nica","country":"PL","coord":{"lon":23.64953,"lat":53.510941}},{"id":766973,"name":"Kurozw?ki","country":"PL","coord":{"lon":21.10594,"lat":50.589119}},{"id":767011,"name":"Kupienin","country":"PL","coord":{"lon":20.960199,"lat":50.305901}},{"id":767121,"name":"Kuczbork-Osada","country":"PL","coord":{"lon":20.047819,"lat":53.086189}},{"id":767145,"name":"Ksi??pol","country":"PL","coord":{"lon":22.73526,"lat":50.423229}},{"id":767150,"name":"Ksi??omierz","country":"PL","coord":{"lon":21.989651,"lat":50.90855}},{"id":767234,"name":"Krzywe","country":"PL","coord":{"lon":22.201139,"lat":49.65715}},{"id":767237,"name":"Krzywda","country":"PL","coord":{"lon":22.19994,"lat":51.795189}},{"id":767241,"name":"Krzywcza","country":"PL","coord":{"lon":22.54549,"lat":49.798939}},{"id":767253,"name":"Krzynow?oga Ma?a","country":"PL","coord":{"lon":20.785789,"lat":53.15773}},{"id":767300,"name":"Krzemienica","country":"PL","coord":{"lon":22.18054,"lat":50.062099}},{"id":767310,"name":"Krzeczowice","country":"PL","coord":{"lon":22.463779,"lat":49.989201}},{"id":767357,"name":"Krynki","country":"PL","coord":{"lon":23.773041,"lat":53.264439}},{"id":767368,"name":"Krynice","country":"PL","coord":{"lon":23.381571,"lat":50.587601}},{"id":767369,"name":"Krynica-Wie?","country":"PL","coord":{"lon":20.9555,"lat":49.410259}},{"id":767435,"name":"Kruklanki","country":"PL","coord":{"lon":21.92227,"lat":54.088551}},{"id":767470,"name":"Krosno","country":"PL","coord":{"lon":21.77058,"lat":49.68866}},{"id":767474,"name":"Kro?nica","country":"PL","coord":{"lon":20.33956,"lat":49.447868}},{"id":767479,"name":"Kro?cienko Wy?ne","country":"PL","coord":{"lon":21.828979,"lat":49.679459}},{"id":767561,"name":"Krempna","country":"PL","coord":{"lon":21.50042,"lat":49.51128}},{"id":767604,"name":"Krasocin","country":"PL","coord":{"lon":20.118629,"lat":50.888741}},{"id":767605,"name":"Krasnystaw","country":"PL","coord":{"lon":23.1742,"lat":50.984638}},{"id":767608,"name":"Krasnosielc","country":"PL","coord":{"lon":21.157351,"lat":53.033779}},{"id":767610,"name":"Krasnopol","country":"PL","coord":{"lon":23.20476,"lat":54.116131}},{"id":767623,"name":"Kra?nik","country":"PL","coord":{"lon":22.22706,"lat":50.923599}},{"id":767627,"name":"Kra?niczyn","country":"PL","coord":{"lon":23.349291,"lat":50.931709}},{"id":767647,"name":"Krasne","country":"PL","coord":{"lon":20.967319,"lat":52.924011}},{"id":767653,"name":"Krasne","country":"PL","coord":{"lon":22.08638,"lat":50.056259}},{"id":767673,"name":"Krasiczyn","country":"PL","coord":{"lon":22.652519,"lat":49.77644}},{"id":767720,"name":"Kraczkowa","country":"PL","coord":{"lon":22.168011,"lat":50.03796}},{"id":767736,"name":"Kozubszczyzna","country":"PL","coord":{"lon":22.427469,"lat":51.223228}},{"id":767763,"name":"Koz?owo","country":"PL","coord":{"lon":20.290979,"lat":53.306519}},{"id":767772,"name":"Nowe Koz?owice","country":"PL","coord":{"lon":20.42968,"lat":52.084782}},{"id":767814,"name":"Kozienice","country":"PL","coord":{"lon":21.547791,"lat":51.582939}},{"id":767858,"name":"Kowiesy","country":"PL","coord":{"lon":20.419291,"lat":51.88942}},{"id":767883,"name":"Kowale Oleckie","country":"PL","coord":{"lon":22.41666,"lat":54.16354}},{"id":767891,"name":"Kowala","country":"PL","coord":{"lon":21.069719,"lat":51.325031}},{"id":767896,"name":"Kowala","country":"PL","coord":{"lon":21.08333,"lat":51.23333}},{"id":767908,"name":"Kotu?","country":"PL","coord":{"lon":22.06819,"lat":52.17643}},{"id":767940,"name":"Koszyce","country":"PL","coord":{"lon":20.94166,"lat":49.97226}},{"id":767982,"name":"Kostom?oty Pierwsze","country":"PL","coord":{"lon":20.5949,"lat":50.923222}},{"id":767983,"name":"Kostom?oty Drugie","country":"PL","coord":{"lon":20.56529,"lat":50.926842}},{"id":768039,"name":"Kosina","country":"PL","coord":{"lon":22.329029,"lat":50.072128}},{"id":768081,"name":"Korzenna","country":"PL","coord":{"lon":20.84355,"lat":49.686352}},{"id":768097,"name":"Korytnica","country":"PL","coord":{"lon":21.849489,"lat":52.41441}},{"id":768112,"name":"Korycin","country":"PL","coord":{"lon":23.090691,"lat":53.445129}},{"id":768116,"name":"Korsze","country":"PL","coord":{"lon":21.139151,"lat":54.170021}},{"id":768123,"name":"Stara Kornica","country":"PL","coord":{"lon":22.937519,"lat":52.181831}},{"id":768136,"name":"Korczyna","country":"PL","coord":{"lon":21.80941,"lat":49.715549}},{"id":768146,"name":"Korczew","country":"PL","coord":{"lon":22.61338,"lat":52.353271}},{"id":768163,"name":"Koprzywnica","country":"PL","coord":{"lon":21.583799,"lat":50.593399}},{"id":768216,"name":"Konstancin-Jeziorna","country":"PL","coord":{"lon":21.117611,"lat":52.0938}},{"id":768217,"name":"Ko?skowola","country":"PL","coord":{"lon":22.05175,"lat":51.409222}},{"id":768218,"name":"Ko?skie","country":"PL","coord":{"lon":20.406071,"lat":51.191662}},{"id":768267,"name":"Konieczkowa","country":"PL","coord":{"lon":21.9282,"lat":49.842079}},{"id":768283,"name":"Ko?czyce","country":"PL","coord":{"lon":22.153761,"lat":50.425751}},{"id":768344,"name":"Koma?cza","country":"PL","coord":{"lon":22.061661,"lat":49.339218}},{"id":768780,"name":"Ko?o","country":"PL","coord":{"lon":20.94903,"lat":52.245739}},{"id":768785,"name":"Kolno","country":"PL","coord":{"lon":21.92905,"lat":53.41148}},{"id":768804,"name":"Kolbuszowa Dolna","country":"PL","coord":{"lon":21.7719,"lat":50.253712}},{"id":768805,"name":"Kolbuszowa","country":"PL","coord":{"lon":21.7761,"lat":50.244099}},{"id":768807,"name":"Ko?biel","country":"PL","coord":{"lon":21.481529,"lat":52.064308}},{"id":768827,"name":"Ko?aczyce","country":"PL","coord":{"lon":21.434071,"lat":49.80743}},{"id":768846,"name":"Kode?","country":"PL","coord":{"lon":23.60301,"lat":51.911709}},{"id":768861,"name":"Kock","country":"PL","coord":{"lon":22.443911,"lat":51.639969}},{"id":768905,"name":"Koby?ka","country":"PL","coord":{"lon":21.19589,"lat":52.339531}},{"id":768940,"name":"Kobylanka","country":"PL","coord":{"lon":21.222931,"lat":49.668911}},{"id":768963,"name":"Knyszyn","country":"PL","coord":{"lon":22.91963,"lat":53.31406}},{"id":768987,"name":"Kluszkowce","country":"PL","coord":{"lon":20.30179,"lat":49.451}},{"id":769046,"name":"K?oczew","country":"PL","coord":{"lon":21.96493,"lat":51.72134}},{"id":769092,"name":"Kleszczele","country":"PL","coord":{"lon":23.32539,"lat":52.573139}},{"id":769117,"name":"Kl?czany","country":"PL","coord":{"lon":20.632231,"lat":49.662941}},{"id":769135,"name":"K?aj","country":"PL","coord":{"lon":20.29904,"lat":49.992458}},{"id":769177,"name":"Kije","country":"PL","coord":{"lon":20.571211,"lat":50.607208}},{"id":769233,"name":"Kie?pin","country":"PL","coord":{"lon":20.862141,"lat":52.35796}},{"id":769250,"name":"Kielce","country":"PL","coord":{"lon":20.62752,"lat":50.870331}},{"id":769274,"name":"K?trzyn","country":"PL","coord":{"lon":21.375271,"lat":54.076759}},{"id":769285,"name":"K?pie ?alesza?skie","country":"PL","coord":{"lon":21.88133,"lat":50.639832}},{"id":769305,"name":"K?pa Gostecka","country":"PL","coord":{"lon":21.807171,"lat":51.134991}},{"id":769345,"name":"Kazimierz Dolny","country":"PL","coord":{"lon":21.955021,"lat":51.319111}},{"id":769346,"name":"Kazimierza Wielka","country":"PL","coord":{"lon":20.49358,"lat":50.26564}},{"id":769364,"name":"Kaw?czyn Nowy","country":"PL","coord":{"lon":20.24703,"lat":51.885971}},{"id":769443,"name":"Kasina Wielka","country":"PL","coord":{"lon":20.13554,"lat":49.729691}},{"id":769514,"name":"Karniewo","country":"PL","coord":{"lon":20.988859,"lat":52.837002}},{"id":769534,"name":"Karczmiska","country":"PL","coord":{"lon":21.981581,"lat":51.229519}},{"id":769539,"name":"Karczew","country":"PL","coord":{"lon":21.24962,"lat":52.07655}},{"id":769591,"name":"Ka?czuga","country":"PL","coord":{"lon":22.41168,"lat":49.983459}},{"id":769600,"name":"Kampinos","country":"PL","coord":{"lon":20.46307,"lat":52.268372}},{"id":769609,"name":"Kamionka Wielka","country":"PL","coord":{"lon":20.823641,"lat":49.568481}},{"id":769640,"name":"Kamionka","country":"PL","coord":{"lon":22.462749,"lat":51.471649}},{"id":769697,"name":"Kamienica","country":"PL","coord":{"lon":20.345051,"lat":49.575329}},{"id":769719,"name":"Kamie?","country":"PL","coord":{"lon":22.135389,"lat":50.340641}},{"id":769738,"name":"Ka?uszyn","country":"PL","coord":{"lon":21.80838,"lat":52.206692}},{"id":769835,"name":"Kadzid?o","country":"PL","coord":{"lon":21.46454,"lat":53.234348}},{"id":769893,"name":"Kabaty","country":"PL","coord":{"lon":21.08148,"lat":52.130119}},{"id":769962,"name":"Juchnowiec Dolny","country":"PL","coord":{"lon":23.136009,"lat":53.015251}},{"id":770025,"name":"Jonkowo","country":"PL","coord":{"lon":20.310539,"lat":53.828171}},{"id":770028,"name":"Joniec","country":"PL","coord":{"lon":20.58177,"lat":52.60128}},{"id":770036,"name":"Jod?owa","country":"PL","coord":{"lon":21.278971,"lat":49.872292}},{"id":770045,"name":"Je?owe","country":"PL","coord":{"lon":22.127489,"lat":50.374859}},{"id":770059,"name":"Jeziorna Oborska","country":"PL","coord":{"lon":21.116671,"lat":52.083328}},{"id":770078,"name":"Jeziorany","country":"PL","coord":{"lon":20.746389,"lat":53.97578}},{"id":770148,"name":"Jedwabno","country":"PL","coord":{"lon":20.72657,"lat":53.5299}},{"id":770149,"name":"Jedwabne","country":"PL","coord":{"lon":22.30353,"lat":53.285542}},{"id":770160,"name":"Jednoro?ec","country":"PL","coord":{"lon":21.051611,"lat":53.141159}},{"id":770162,"name":"Jedlnia-Letnisko","country":"PL","coord":{"lon":21.33536,"lat":51.43074}},{"id":770165,"name":"Jedli?sk","country":"PL","coord":{"lon":21.11577,"lat":51.514}},{"id":770169,"name":"Jedlicze","country":"PL","coord":{"lon":21.648861,"lat":49.717491}},{"id":770221,"name":"Jawornik Polski","country":"PL","coord":{"lon":22.288679,"lat":49.89082}},{"id":770225,"name":"Jawornik","country":"PL","coord":{"lon":21.894039,"lat":49.846401}},{"id":770269,"name":"Jastrz?bia","country":"PL","coord":{"lon":21.237089,"lat":51.497421}},{"id":770271,"name":"Jastrz?bia","country":"PL","coord":{"lon":20.88089,"lat":49.797329}},{"id":770286,"name":"Jastrz?b","country":"PL","coord":{"lon":20.94758,"lat":51.24725}},{"id":770293,"name":"Jas?o","country":"PL","coord":{"lon":21.472521,"lat":49.74506}},{"id":770295,"name":"Ja?liska","country":"PL","coord":{"lon":21.807949,"lat":49.442291}},{"id":770341,"name":"Jasieniec","country":"PL","coord":{"lon":20.94099,"lat":51.821041}},{"id":770346,"name":"Jasienica Rosielna","country":"PL","coord":{"lon":21.941759,"lat":49.751438}},{"id":770348,"name":"Jasienica","country":"PL","coord":{"lon":21.411501,"lat":52.41415}},{"id":770357,"name":"Jasie?","country":"PL","coord":{"lon":20.571899,"lat":49.969879}},{"id":770380,"name":"Jaros?aw","country":"PL","coord":{"lon":22.677759,"lat":50.016232}},{"id":770383,"name":"Jarocin","country":"PL","coord":{"lon":22.321211,"lat":50.56459}},{"id":770441,"name":"Janowiec","country":"PL","coord":{"lon":21.8894,"lat":51.323589}},{"id":770456,"name":"Janowice","country":"PL","coord":{"lon":20.860809,"lat":49.891541}},{"id":770602,"name":"Jakubowice Murowane","country":"PL","coord":{"lon":22.63415,"lat":51.26992}},{"id":770647,"name":"Jagie??a","country":"PL","coord":{"lon":22.572611,"lat":50.094601}},{"id":770659,"name":"Jadowniki Mokre","country":"PL","coord":{"lon":20.728451,"lat":50.165459}},{"id":770661,"name":"Jadowniki","country":"PL","coord":{"lon":20.644341,"lat":49.958839}},{"id":770705,"name":"Jab?onna Lacka","country":"PL","coord":{"lon":22.44228,"lat":52.476639}},{"id":770706,"name":"Jab?onna","country":"PL","coord":{"lon":20.91745,"lat":52.378849}},{"id":770711,"name":"Jab?onna","country":"PL","coord":{"lon":22.593639,"lat":51.088749}},{"id":770721,"name":"Jab?onka","country":"PL","coord":{"lon":22.11565,"lat":49.694172}},{"id":770724,"name":"Jab?onica Polska","country":"PL","coord":{"lon":21.899611,"lat":49.697842}},{"id":770731,"name":"Jab?o?","country":"PL","coord":{"lon":23.087429,"lat":51.72501}},{"id":770751,"name":"Izbica","country":"PL","coord":{"lon":23.152479,"lat":50.88728}},{"id":770754,"name":"Izabelin","country":"PL","coord":{"lon":21.058041,"lat":52.395191}},{"id":770762,"name":"Iwkowa","country":"PL","coord":{"lon":20.590179,"lat":49.817162}},{"id":770763,"name":"Iwierzyce","country":"PL","coord":{"lon":21.75396,"lat":50.029579}},{"id":770772,"name":"Iwaniska","country":"PL","coord":{"lon":21.2806,"lat":50.731461}},{"id":770787,"name":"Imielno","country":"PL","coord":{"lon":20.44813,"lat":50.58569}},{"id":770792,"name":"I??a","country":"PL","coord":{"lon":21.23979,"lat":51.163132}},{"id":770833,"name":"Hy?ne","country":"PL","coord":{"lon":22.181311,"lat":49.91769}},{"id":770918,"name":"Humniska","country":"PL","coord":{"lon":22.05368,"lat":49.675072}},{"id":770996,"name":"Horod?o","country":"PL","coord":{"lon":24.03723,"lat":50.894588}},{"id":771134,"name":"Harasiuki","country":"PL","coord":{"lon":22.472879,"lat":50.475151}},{"id":771139,"name":"Ha?sk","country":"PL","coord":{"lon":23.39942,"lat":51.412861}},{"id":771168,"name":"Gzy","country":"PL","coord":{"lon":20.94372,"lat":52.740452}},{"id":771210,"name":"Gutwin","country":"PL","coord":{"lon":21.400961,"lat":50.96685}},{"id":771286,"name":"Grz?ska","country":"PL","coord":{"lon":22.453991,"lat":50.083031}},{"id":771336,"name":"Grunwald","country":"PL","coord":{"lon":20.09425,"lat":53.484219}},{"id":771343,"name":"Grudusk","country":"PL","coord":{"lon":20.624941,"lat":53.058449}},{"id":771348,"name":"Grudki","country":"PL","coord":{"lon":23.66848,"lat":53.094879}},{"id":771374,"name":"Gromnik","country":"PL","coord":{"lon":20.961229,"lat":49.838428}},{"id":771381,"name":"Gromada","country":"PL","coord":{"lon":22.70785,"lat":50.561981}},{"id":771394,"name":"Grodzisko Dolne","country":"PL","coord":{"lon":22.462919,"lat":50.16238}},{"id":771401,"name":"Grodzisk Mazowiecki","country":"PL","coord":{"lon":20.633699,"lat":52.10387}},{"id":771497,"name":"Granica","country":"PL","coord":{"lon":20.803129,"lat":52.133591}},{"id":771506,"name":"Grajewo","country":"PL","coord":{"lon":22.45537,"lat":53.647282}},{"id":771566,"name":"Grabownica Starze?ska","country":"PL","coord":{"lon":22.077539,"lat":49.658958}},{"id":771590,"name":"Grabowiec","country":"PL","coord":{"lon":23.55057,"lat":50.8209}},{"id":771683,"name":"Goworowo","country":"PL","coord":{"lon":21.55578,"lat":52.900829}},{"id":771690,"name":"Goszczyn","country":"PL","coord":{"lon":20.85154,"lat":51.731869}},{"id":771712,"name":"Go?linki","country":"PL","coord":{"lon":20.471581,"lat":51.794559}},{"id":771729,"name":"Gorzyce","country":"PL","coord":{"lon":21.84013,"lat":50.667198}},{"id":771731,"name":"Gorzyce","country":"PL","coord":{"lon":22.57926,"lat":50.12841}},{"id":771803,"name":"Gorliczyna","country":"PL","coord":{"lon":22.48764,"lat":50.092171}},{"id":771804,"name":"Gorlice","country":"PL","coord":{"lon":21.160351,"lat":49.655628}},{"id":771876,"name":"Goraj","country":"PL","coord":{"lon":22.66651,"lat":50.72184}},{"id":771893,"name":"Goniadz","country":"PL","coord":{"lon":22.735781,"lat":53.489529}},{"id":771901,"name":"Go?ymin-O?rodek","country":"PL","coord":{"lon":20.873249,"lat":52.807999}},{"id":771953,"name":"Go?dap","country":"PL","coord":{"lon":22.303619,"lat":54.306309}},{"id":771955,"name":"Golcowa","country":"PL","coord":{"lon":22.025009,"lat":49.771622}},{"id":771973,"name":"Go??bki","country":"PL","coord":{"lon":20.859779,"lat":52.20319}},{"id":772021,"name":"Gnojno","country":"PL","coord":{"lon":20.849131,"lat":50.602631}},{"id":772023,"name":"Gnojnik","country":"PL","coord":{"lon":20.608629,"lat":49.89397}},{"id":772107,"name":"Glinojeck","country":"PL","coord":{"lon":20.291981,"lat":52.819832}},{"id":772195,"name":"Gi?ycko","country":"PL","coord":{"lon":21.76441,"lat":54.038109}},{"id":772218,"name":"Gietrzwa?d","country":"PL","coord":{"lon":20.237419,"lat":53.74617}},{"id":772220,"name":"Gierzwa?d","country":"PL","coord":{"lon":20.088671,"lat":53.541279}},{"id":772227,"name":"Gier?o?","country":"PL","coord":{"lon":21.49551,"lat":54.081341}},{"id":772248,"name":"Giedlarowa","country":"PL","coord":{"lon":22.40593,"lat":50.226891}},{"id":772313,"name":"G?socin","country":"PL","coord":{"lon":20.7118,"lat":52.737541}},{"id":772339,"name":"Garwolin","country":"PL","coord":{"lon":21.61466,"lat":51.897469}},{"id":772372,"name":"Garbatka-Letnisko","country":"PL","coord":{"lon":21.61079,"lat":51.4832}},{"id":772410,"name":"Ga?achy","country":"PL","coord":{"lon":20.63335,"lat":52.433411}},{"id":772455,"name":"Ga?","country":"PL","coord":{"lon":22.35898,"lat":50.026932}},{"id":772465,"name":"Frysztak","country":"PL","coord":{"lon":21.609421,"lat":49.84164}},{"id":772467,"name":"Frydman","country":"PL","coord":{"lon":20.22961,"lat":49.449268}},{"id":772470,"name":"Fredropol","country":"PL","coord":{"lon":22.74625,"lat":49.695782}},{"id":772492,"name":"Frampol","country":"PL","coord":{"lon":22.67061,"lat":50.671589}},{"id":772518,"name":"Firlej","country":"PL","coord":{"lon":22.50841,"lat":51.558819}},{"id":772584,"name":"Fajs?awice","country":"PL","coord":{"lon":22.96323,"lat":51.095921}},{"id":772621,"name":"E?k","country":"PL","coord":{"lon":22.364691,"lat":53.828239}},{"id":772641,"name":"Dzwola","country":"PL","coord":{"lon":22.567289,"lat":50.696571}},{"id":772644,"name":"D?wierzuty","country":"PL","coord":{"lon":20.960369,"lat":53.704941}},{"id":772662,"name":"Dzikowiec","country":"PL","coord":{"lon":21.843651,"lat":50.272881}},{"id":772667,"name":"Dziewin","country":"PL","coord":{"lon":20.45491,"lat":50.075539}},{"id":772680,"name":"Dzierzkowice","country":"PL","coord":{"lon":22.066389,"lat":50.960201}},{"id":772687,"name":"Dzierzgowo","country":"PL","coord":{"lon":20.663219,"lat":53.15279}},{"id":772698,"name":"Dzierz??nia","country":"PL","coord":{"lon":20.233641,"lat":52.628109}},{"id":772747,"name":"Dzia?oszyce","country":"PL","coord":{"lon":20.352261,"lat":50.365341}},{"id":772748,"name":"Dzia?dowo","country":"PL","coord":{"lon":20.17004,"lat":53.239578}},{"id":772758,"name":"Dziadkowice","country":"PL","coord":{"lon":22.916889,"lat":52.563801}},{"id":772768,"name":"Dywity","country":"PL","coord":{"lon":20.47817,"lat":53.837589}},{"id":772793,"name":"Dydnia","country":"PL","coord":{"lon":22.171961,"lat":49.686401}},{"id":772822,"name":"Dwikozy","country":"PL","coord":{"lon":21.788639,"lat":50.73613}},{"id":772857,"name":"Dukla","country":"PL","coord":{"lon":21.68317,"lat":49.555538}},{"id":772873,"name":"Duczki","country":"PL","coord":{"lon":21.29047,"lat":52.362709}},{"id":772896,"name":"Dubienka","country":"PL","coord":{"lon":23.892521,"lat":51.048618}},{"id":772897,"name":"Dubiecko","country":"PL","coord":{"lon":22.391171,"lat":49.82608}},{"id":772915,"name":"Drzewica","country":"PL","coord":{"lon":20.477011,"lat":51.450851}},{"id":772959,"name":"Drohiczyn","country":"PL","coord":{"lon":22.658529,"lat":52.400108}},{"id":773014,"name":"Dorohusk","country":"PL","coord":{"lon":23.803249,"lat":51.154751}},{"id":773033,"name":"Domaszowice","country":"PL","coord":{"lon":20.68288,"lat":50.874882}},{"id":773040,"name":"Domaradz","country":"PL","coord":{"lon":21.945709,"lat":49.786751}},{"id":773050,"name":"Domanice","country":"PL","coord":{"lon":22.17642,"lat":52.037392}},{"id":773100,"name":"Dobrzyniewo Du?e","country":"PL","coord":{"lon":23.01129,"lat":53.200218}},{"id":773148,"name":"Dobre Miasto","country":"PL","coord":{"lon":20.39749,"lat":53.986679}},{"id":773149,"name":"Dobre","country":"PL","coord":{"lon":21.67881,"lat":52.320969}},{"id":773165,"name":"Dobra","country":"PL","coord":{"lon":20.253469,"lat":49.71793}},{"id":773176,"name":"Dobczyce","country":"PL","coord":{"lon":20.089359,"lat":49.881088}},{"id":773217,"name":"D?ugosiod?o","country":"PL","coord":{"lon":21.591829,"lat":52.759979}},{"id":773250,"name":"D?ugie","country":"PL","coord":{"lon":22.043381,"lat":49.578659}},{"id":773320,"name":"D?bowiec","country":"PL","coord":{"lon":21.46068,"lat":49.683739}},{"id":773326,"name":"D?bowa K?oda","country":"PL","coord":{"lon":23.006399,"lat":51.59446}},{"id":773340,"name":"D?bno","country":"PL","coord":{"lon":22.51837,"lat":50.198109}},{"id":773341,"name":"D?bno","country":"PL","coord":{"lon":20.71979,"lat":49.96701}},{"id":773357,"name":"D?blin","country":"PL","coord":{"lon":21.848289,"lat":51.55912}},{"id":773380,"name":"D?bica","country":"PL","coord":{"lon":21.411409,"lat":50.05146}},{"id":773386,"name":"D?be Wielkie","country":"PL","coord":{"lon":21.44334,"lat":52.199612}},{"id":773453,"name":"Daleszyce","country":"PL","coord":{"lon":20.807911,"lat":50.802292}},{"id":773569,"name":"D?browa Tarnowska","country":"PL","coord":{"lon":20.98633,"lat":50.174622}},{"id":773593,"name":"D?browa Bia?ostocka","country":"PL","coord":{"lon":23.347919,"lat":53.653641}},{"id":773676,"name":"Czy?ew","country":"PL","coord":{"lon":22.31237,"lat":52.79768}},{"id":773695,"name":"Czudec","country":"PL","coord":{"lon":21.841339,"lat":49.94487}},{"id":773735,"name":"Czerwonka","country":"PL","coord":{"lon":20.896851,"lat":53.916271}},{"id":773738,"name":"Czerwonka","country":"PL","coord":{"lon":21.214939,"lat":52.89254}},{"id":773751,"name":"Czerwi?sk Nad Wis??","country":"PL","coord":{"lon":20.309601,"lat":52.398281}},{"id":773753,"name":"Czerwin","country":"PL","coord":{"lon":21.758421,"lat":52.949051}},{"id":773765,"name":"Czerniewice","country":"PL","coord":{"lon":20.155531,"lat":51.65419}},{"id":773780,"name":"Czernice Borowe","country":"PL","coord":{"lon":20.71944,"lat":53.031971}},{"id":773797,"name":"Czermin","country":"PL","coord":{"lon":21.333561,"lat":50.339111}},{"id":773802,"name":"Czeremcha","country":"PL","coord":{"lon":23.35,"lat":52.51667}},{"id":773808,"name":"Czemierniki","country":"PL","coord":{"lon":22.63887,"lat":51.672981}},{"id":773833,"name":"Czaszyn","country":"PL","coord":{"lon":22.216499,"lat":49.44854}},{"id":773897,"name":"Czarnocin","country":"PL","coord":{"lon":20.516199,"lat":50.340801}},{"id":773898,"name":"Czarnochowice","country":"PL","coord":{"lon":20.0679,"lat":50.004711}},{"id":773902,"name":"Czarnia","country":"PL","coord":{"lon":21.1952,"lat":53.35614}},{"id":773941,"name":"Czarna Bia?ostocka","country":"PL","coord":{"lon":23.28146,"lat":53.305092}},{"id":773965,"name":"Czarna","country":"PL","coord":{"lon":22.18165,"lat":50.109791}},{"id":773966,"name":"Czarna","country":"PL","coord":{"lon":21.25614,"lat":50.067169}},{"id":773968,"name":"Czarna","country":"PL","coord":{"lon":22.65896,"lat":49.331161}},{"id":774058,"name":"Cmolas","country":"PL","coord":{"lon":21.744169,"lat":50.295261}},{"id":774090,"name":"Cisna","country":"PL","coord":{"lon":22.32795,"lat":49.21328}},{"id":774116,"name":"Ci??kowice","country":"PL","coord":{"lon":20.97324,"lat":49.785751}},{"id":774186,"name":"Ciel?dz","country":"PL","coord":{"lon":20.34428,"lat":51.715759}},{"id":774207,"name":"Ciechanowiec","country":"PL","coord":{"lon":22.49815,"lat":52.67828}},{"id":774265,"name":"Chwa?owice","country":"PL","coord":{"lon":21.886829,"lat":50.766651}},{"id":774387,"name":"Chorzele","country":"PL","coord":{"lon":20.89728,"lat":53.26075}},{"id":774393,"name":"Choroszcz","country":"PL","coord":{"lon":22.98889,"lat":53.143318}},{"id":774413,"name":"Chom?ciska Du?e","country":"PL","coord":{"lon":23.17128,"lat":50.800442}},{"id":774472,"name":"Chodel","country":"PL","coord":{"lon":22.13269,"lat":51.111771}},{"id":774504,"name":"Chmielnik","country":"PL","coord":{"lon":20.75206,"lat":50.614399}},{"id":774505,"name":"Chmielnik","country":"PL","coord":{"lon":22.14535,"lat":49.973862}},{"id":774534,"name":"Chlewiska","country":"PL","coord":{"lon":22.64031,"lat":51.47187}},{"id":774535,"name":"Chlewiska","country":"PL","coord":{"lon":20.768709,"lat":51.243759}},{"id":774554,"name":"Che?miec","country":"PL","coord":{"lon":20.664249,"lat":49.630508}},{"id":774558,"name":"Che?m","country":"PL","coord":{"lon":23.4716,"lat":51.14312}},{"id":774572,"name":"Ch?ciny","country":"PL","coord":{"lon":20.46229,"lat":50.800209}},{"id":774711,"name":"Bystra","country":"PL","coord":{"lon":21.086281,"lat":49.66235}},{"id":774730,"name":"Bychawa","country":"PL","coord":{"lon":22.532961,"lat":51.016079}},{"id":774770,"name":"Bulkowo","country":"PL","coord":{"lon":20.118891,"lat":52.540871}},{"id":774776,"name":"Bukowsko","country":"PL","coord":{"lon":22.06329,"lat":49.480389}},{"id":774790,"name":"Bukowina Tatrza?ska","country":"PL","coord":{"lon":20.10807,"lat":49.343021}},{"id":774843,"name":"Bugaj","country":"PL","coord":{"lon":21.06925,"lat":51.069721}},{"id":775010,"name":"Brzyska","country":"PL","coord":{"lon":21.390039,"lat":49.822262}},{"id":775075,"name":"Brzozowica","country":"PL","coord":{"lon":21.68066,"lat":52.339218}},{"id":775110,"name":"Brzostek","country":"PL","coord":{"lon":21.41102,"lat":49.879539}},{"id":775136,"name":"Brze?nica","country":"PL","coord":{"lon":21.480249,"lat":50.100651}},{"id":775138,"name":"Brze?nica","country":"PL","coord":{"lon":20.49139,"lat":49.95763}},{"id":775155,"name":"Brzeziny","country":"PL","coord":{"lon":20.573191,"lat":50.772732}},{"id":775183,"name":"Brzesko","country":"PL","coord":{"lon":20.60606,"lat":49.969109}},{"id":775210,"name":"Brz?czowice","country":"PL","coord":{"lon":20.03709,"lat":49.874779}},{"id":775304,"name":"Brok","country":"PL","coord":{"lon":21.85704,"lat":52.699478}},{"id":775318,"name":"Brody","country":"PL","coord":{"lon":21.22147,"lat":51.024658}},{"id":775358,"name":"Bra?szczyk","country":"PL","coord":{"lon":21.58745,"lat":52.629311}},{"id":775359,"name":"Bra?sk","country":"PL","coord":{"lon":22.83774,"lat":52.7444}},{"id":775423,"name":"Borz?cin","country":"PL","coord":{"lon":20.711029,"lat":50.065399}},{"id":775493,"name":"Borowie","country":"PL","coord":{"lon":21.7658,"lat":51.949081}},{"id":775513,"name":"Borowa","country":"PL","coord":{"lon":21.3515,"lat":50.385479}},{"id":775533,"name":"Borkowice","country":"PL","coord":{"lon":20.68339,"lat":51.320251}},{"id":775555,"name":"Borki","country":"PL","coord":{"lon":21.64537,"lat":52.4641}},{"id":775561,"name":"Borki","country":"PL","coord":{"lon":22.52129,"lat":51.721611}},{"id":775594,"name":"Borek","country":"PL","coord":{"lon":20.53087,"lat":50.01778}},{"id":775684,"name":"Boguty-Pianki","country":"PL","coord":{"lon":22.415461,"lat":52.716801}},{"id":775717,"name":"Boguchwa?a","country":"PL","coord":{"lon":21.94528,"lat":49.98473}},{"id":775720,"name":"Bogoria","country":"PL","coord":{"lon":21.26,"lat":50.651749}},{"id":775736,"name":"Bodzentyn","country":"PL","coord":{"lon":20.95719,"lat":50.941151}},{"id":775754,"name":"Bo?ki","country":"PL","coord":{"lon":23.044849,"lat":52.65155}},{"id":775758,"name":"Bochnia","country":"PL","coord":{"lon":20.430281,"lat":49.969051}},{"id":775775,"name":"Bobrowniki","country":"PL","coord":{"lon":20.019489,"lat":52.064419}},{"id":775796,"name":"Bobowa","country":"PL","coord":{"lon":20.94767,"lat":49.70866}},{"id":775810,"name":"Stara B?otnica","country":"PL","coord":{"lon":20.974791,"lat":51.546761}},{"id":775820,"name":"B?onie","country":"PL","coord":{"lon":20.61709,"lat":52.19849}},{"id":775836,"name":"Bli?yn","country":"PL","coord":{"lon":20.75935,"lat":51.10778}},{"id":775840,"name":"Blizne","country":"PL","coord":{"lon":21.973511,"lat":49.753319}},{"id":775866,"name":"B?a?owa","country":"PL","coord":{"lon":22.10037,"lat":49.885208}},{"id":775886,"name":"Bisztynek","country":"PL","coord":{"lon":20.90192,"lat":54.08633}},{"id":775888,"name":"Biszcza","country":"PL","coord":{"lon":22.650631,"lat":50.401459}},{"id":775890,"name":"Biskupiec","country":"PL","coord":{"lon":20.956921,"lat":53.86467}},{"id":775894,"name":"Biskupice Rad?owskie","country":"PL","coord":{"lon":20.85943,"lat":50.120689}},{"id":775908,"name":"Bircza","country":"PL","coord":{"lon":22.47854,"lat":49.69173}},{"id":775917,"name":"Binarowa","country":"PL","coord":{"lon":21.228161,"lat":49.75621}},{"id":775922,"name":"Bi?goraj","country":"PL","coord":{"lon":22.72204,"lat":50.541142}},{"id":775976,"name":"Bieniewice","country":"PL","coord":{"lon":20.563061,"lat":52.182678}},{"id":775986,"name":"Bielsk Podlaski","country":"PL","coord":{"lon":23.18647,"lat":52.765121}},{"id":775996,"name":"Bieliny","country":"PL","coord":{"lon":20.94149,"lat":50.849468}},{"id":776001,"name":"Bieliny","country":"PL","coord":{"lon":22.304819,"lat":50.442371}},{"id":776024,"name":"Bielany","country":"PL","coord":{"lon":22.24929,"lat":52.34174}},{"id":776053,"name":"Biecz","country":"PL","coord":{"lon":21.26301,"lat":49.735958}},{"id":776069,"name":"Bia?ystok","country":"PL","coord":{"lon":23.15,"lat":53.133331}},{"id":776080,"name":"Bia?y Dunajec","country":"PL","coord":{"lon":20.00898,"lat":49.373798}},{"id":776092,"name":"Bia?owie?a","country":"PL","coord":{"lon":23.866671,"lat":52.700001}},{"id":776093,"name":"Bialowieza","country":"PL","coord":{"lon":23.86574,"lat":52.70385}},{"id":776113,"name":"Bia?obrzegi","country":"PL","coord":{"lon":21.052549,"lat":52.44199}},{"id":776114,"name":"Bia?obrzegi","country":"PL","coord":{"lon":20.950411,"lat":51.64695}},{"id":776120,"name":"Bia?obrzegi","country":"PL","coord":{"lon":22.319071,"lat":50.10252}},{"id":776144,"name":"Bia?ka Tatrza?ska","country":"PL","coord":{"lon":20.10507,"lat":49.389751}},{"id":776172,"name":"Bia?a Rawska","country":"PL","coord":{"lon":20.472589,"lat":51.807789}},{"id":776174,"name":"Bia?a Poduchowna","country":"PL","coord":{"lon":22.425329,"lat":50.712849}},{"id":776175,"name":"Bia?a Podlaska","country":"PL","coord":{"lon":23.11652,"lat":52.032379}},{"id":776178,"name":"Bia?a Piska","country":"PL","coord":{"lon":22.06321,"lat":53.611912}},{"id":776214,"name":"Besko","country":"PL","coord":{"lon":21.952921,"lat":49.58757}},{"id":776252,"name":"Be??yce","country":"PL","coord":{"lon":22.28027,"lat":51.174149}},{"id":776257,"name":"Belsk Du?y","country":"PL","coord":{"lon":20.80847,"lat":51.825611}},{"id":776271,"name":"Bejsce","country":"PL","coord":{"lon":20.598339,"lat":50.239029}},{"id":776310,"name":"Batorz","country":"PL","coord":{"lon":22.49313,"lat":50.850498}},{"id":776337,"name":"Bartoszyce","country":"PL","coord":{"lon":20.808189,"lat":54.25354}},{"id":776384,"name":"Barczewo","country":"PL","coord":{"lon":20.69112,"lat":53.830551}},{"id":776393,"name":"Barciany","country":"PL","coord":{"lon":21.35347,"lat":54.219929}},{"id":776407,"name":"Baranowo","country":"PL","coord":{"lon":21.298031,"lat":53.175541}},{"id":776440,"name":"Baniocha","country":"PL","coord":{"lon":21.139839,"lat":52.016529}},{"id":776441,"name":"Banie Mazurskie","country":"PL","coord":{"lon":22.036169,"lat":54.24662}},{"id":776531,"name":"Ba?kowice","country":"PL","coord":{"lon":21.232109,"lat":50.791939}},{"id":776551,"name":"Babsk","country":"PL","coord":{"lon":20.35046,"lat":51.839279}},{"id":776553,"name":"Baboszewo","country":"PL","coord":{"lon":20.25527,"lat":52.680698}},{"id":776574,"name":"Babica","country":"PL","coord":{"lon":21.87035,"lat":49.934761}},{"id":776677,"name":"Annopol","country":"PL","coord":{"lon":21.856779,"lat":50.885509}},{"id":776759,"name":"Albigowa","country":"PL","coord":{"lon":22.22414,"lat":50.014252}},{"id":798544,"name":"Republic of Poland","country":"PL","coord":{"lon":20,"lat":52}},{"id":3079850,"name":"Powiat b?dzi?ski","country":"PL","coord":{"lon":19.104191,"lat":50.329239}},{"id":3079855,"name":"?ywiec","country":"PL","coord":{"lon":19.19243,"lat":49.685291}},{"id":3079876,"name":"Zyglinek","country":"PL","coord":{"lon":18.94524,"lat":50.492859}},{"id":3079897,"name":"?ychlin","country":"PL","coord":{"lon":19.626129,"lat":52.244041}},{"id":3079920,"name":"Zwierzyniec","country":"PL","coord":{"lon":19.0042,"lat":50.13707}},{"id":3079923,"name":"Zwierzy?","country":"PL","coord":{"lon":15.56763,"lat":52.832119}},{"id":3079942,"name":"?uromin","country":"PL","coord":{"lon":19.908939,"lat":53.066109}},{"id":3079969,"name":"?ukowo","country":"PL","coord":{"lon":18.364759,"lat":54.342201}},{"id":3079987,"name":"Zubrzyca Dolna","country":"PL","coord":{"lon":19.67342,"lat":49.526878}},{"id":3079992,"name":"Zubard?","country":"PL","coord":{"lon":19.41667,"lat":51.783329}},{"id":3080004,"name":"?ory","country":"PL","coord":{"lon":18.700621,"lat":50.045231}},{"id":3080047,"name":"?nin","country":"PL","coord":{"lon":17.719919,"lat":52.849579}},{"id":3080061,"name":"Z?oty Stok","country":"PL","coord":{"lon":16.87586,"lat":50.444721}},{"id":3080074,"name":"Z?otoryja","country":"PL","coord":{"lon":15.91979,"lat":51.126369}},{"id":3080083,"name":"Z?otniki Kujawskie","country":"PL","coord":{"lon":18.145639,"lat":52.899429}},{"id":3080084,"name":"Z?otniki","country":"PL","coord":{"lon":16.844959,"lat":52.494068}},{"id":3080101,"name":"Z?oczew","country":"PL","coord":{"lon":18.60363,"lat":51.417191}},{"id":3080102,"name":"Z?ocieniec","country":"PL","coord":{"lon":16.01132,"lat":53.53286}},{"id":3080105,"name":"??obizna","country":"PL","coord":{"lon":17.45813,"lat":50.842701}},{"id":3080111,"name":"Z?awie? Wielka","country":"PL","coord":{"lon":18.32897,"lat":53.095619}},{"id":3080156,"name":"Zielonki","country":"PL","coord":{"lon":19.92156,"lat":50.120911}},{"id":3080226,"name":"Zi?bice","country":"PL","coord":{"lon":17.040649,"lat":50.601219}},{"id":3080231,"name":"Zgorzelec","country":"PL","coord":{"lon":15.00835,"lat":51.149422}},{"id":3080242,"name":"Zgoda","country":"PL","coord":{"lon":18.91667,"lat":50.283329}},{"id":3080251,"name":"Zgierz","country":"PL","coord":{"lon":19.406231,"lat":51.85561}},{"id":3080263,"name":"?erniki Wroc?awskie","country":"PL","coord":{"lon":17.05662,"lat":51.033081}},{"id":3080271,"name":"?ernica","country":"PL","coord":{"lon":18.615471,"lat":50.2477}},{"id":3080291,"name":"Zembrzyce","country":"PL","coord":{"lon":19.6012,"lat":49.775169}},{"id":3080302,"name":"?elistrzewo","country":"PL","coord":{"lon":18.417379,"lat":54.6777}},{"id":3080367,"name":"Zebrzydowice","country":"PL","coord":{"lon":18.5,"lat":50.099998}},{"id":3080368,"name":"Zebrzydowice","country":"PL","coord":{"lon":19.672911,"lat":49.89032}},{"id":3080369,"name":"Zebrzydowice","country":"PL","coord":{"lon":18.611271,"lat":49.87793}},{"id":3080380,"name":"Z?bowice","country":"PL","coord":{"lon":18.344339,"lat":50.762901}},{"id":3080389,"name":"Zdzieszowice","country":"PL","coord":{"lon":18.123489,"lat":50.42482}},{"id":3080410,"name":"Zduny","country":"PL","coord":{"lon":18.164351,"lat":51.743931}},{"id":3080411,"name":"Zduny","country":"PL","coord":{"lon":17.37694,"lat":51.645802}},{"id":3080414,"name":"Zdu?ska Wola","country":"PL","coord":{"lon":18.939739,"lat":51.599152}},{"id":3080422,"name":"Zdrojki","country":"PL","coord":{"lon":18.50532,"lat":52.026241}},{"id":3080457,"name":"Zbros?awice","country":"PL","coord":{"lon":18.754431,"lat":50.416119}},{"id":3080476,"name":"Zblewo","country":"PL","coord":{"lon":18.32262,"lat":53.933659}},{"id":3080494,"name":"Zb?szynek","country":"PL","coord":{"lon":15.81654,"lat":52.243149}},{"id":3080495,"name":"Zb?szy?","country":"PL","coord":{"lon":15.9252,"lat":52.2509}},{"id":3080502,"name":"Zazamcze","country":"PL","coord":{"lon":19.033331,"lat":52.666672}},{"id":3080508,"name":"Zawoja","country":"PL","coord":{"lon":19.542271,"lat":49.643959}},{"id":3080525,"name":"Zawiercie Nowe","country":"PL","coord":{"lon":19.41342,"lat":50.505909}},{"id":3080526,"name":"Zawiercie","country":"PL","coord":{"lon":19.41679,"lat":50.487659}},{"id":3080530,"name":"Zawidz","country":"PL","coord":{"lon":19.873671,"lat":52.82745}},{"id":3080538,"name":"Zawadzkie","country":"PL","coord":{"lon":18.484671,"lat":50.60503}},{"id":3080590,"name":"Zator","country":"PL","coord":{"lon":19.43799,"lat":49.99604}},{"id":3080634,"name":"Zarzecze","country":"PL","coord":{"lon":19.69591,"lat":50.367149}},{"id":3080636,"name":"Zarzecze","country":"PL","coord":{"lon":19.175261,"lat":49.719318}},{"id":3080644,"name":"?ary","country":"PL","coord":{"lon":15.13727,"lat":51.642052}},{"id":3080674,"name":"?arki","country":"PL","coord":{"lon":19.363569,"lat":50.625179}},{"id":3080675,"name":"?arki","country":"PL","coord":{"lon":19.35199,"lat":50.082588}},{"id":3080696,"name":"Zapolice","country":"PL","coord":{"lon":18.88335,"lat":51.54319}},{"id":3080705,"name":"Zaniemy?l","country":"PL","coord":{"lon":17.162279,"lat":52.155609}},{"id":3080736,"name":"Zamarski","country":"PL","coord":{"lon":18.66972,"lat":49.782539}},{"id":3080757,"name":"Zalewo","country":"PL","coord":{"lon":19.60519,"lat":53.845341}},{"id":3080807,"name":"Zalas","country":"PL","coord":{"lon":19.621321,"lat":50.08033}},{"id":3080830,"name":"Zakrzewo","country":"PL","coord":{"lon":17.15472,"lat":53.411861}},{"id":3080846,"name":"Zakrzewice","country":"PL","coord":{"lon":17.24972,"lat":52.074459}},{"id":3080866,"name":"Zakopane","country":"PL","coord":{"lon":19.948851,"lat":49.298988}},{"id":3080874,"name":"Zajezierze","country":"PL","coord":{"lon":17.51667,"lat":52.23333}},{"id":3080895,"name":"Zagrodno","country":"PL","coord":{"lon":15.86533,"lat":51.191341}},{"id":3080944,"name":"?aga?","country":"PL","coord":{"lon":15.31486,"lat":51.617592}},{"id":3080951,"name":"Zadzim","country":"PL","coord":{"lon":18.849279,"lat":51.776661}},{"id":3080984,"name":"Zabrzeg","country":"PL","coord":{"lon":18.942921,"lat":49.916191}},{"id":3080985,"name":"Zabrze","country":"PL","coord":{"lon":18.785761,"lat":50.324921}},{"id":3081003,"name":"Zaborze","country":"PL","coord":{"lon":19.240669,"lat":50.021751}},{"id":3081004,"name":"Zaborze","country":"PL","coord":{"lon":18.803699,"lat":49.872791}},{"id":3081025,"name":"Zabornia","country":"PL","coord":{"lon":19.966669,"lat":49.616669}},{"id":3081036,"name":"?abnica","country":"PL","coord":{"lon":19.15621,"lat":49.58139}},{"id":3081045,"name":"Zab?ocie","country":"PL","coord":{"lon":18.781469,"lat":49.902821}},{"id":3081046,"name":"Z?bkowice ?l?skie","country":"PL","coord":{"lon":16.812389,"lat":50.589691}},{"id":3081080,"name":"Wy?ne","country":"PL","coord":{"lon":15.15,"lat":51.099998}},{"id":3081128,"name":"Wysoka","country":"PL","coord":{"lon":17.08353,"lat":53.180908}},{"id":3081136,"name":"Wysoka","country":"PL","coord":{"lon":19.35368,"lat":50.42989}},{"id":3081138,"name":"Wysoka","country":"PL","coord":{"lon":19.603559,"lat":49.907131}},{"id":3081158,"name":"Wyrzysk","country":"PL","coord":{"lon":17.268021,"lat":53.153}},{"id":3081161,"name":"Wyry","country":"PL","coord":{"lon":18.90052,"lat":50.132961}},{"id":3081203,"name":"Wymy?lanka","country":"PL","coord":{"lon":18.9,"lat":50.166672}},{"id":3081206,"name":"Wymiarki","country":"PL","coord":{"lon":15.08208,"lat":51.511089}},{"id":3081300,"name":"Wschowa","country":"PL","coord":{"lon":16.316629,"lat":51.807049}},{"id":3081324,"name":"Wrze?nia","country":"PL","coord":{"lon":17.565189,"lat":52.325119}},{"id":3081330,"name":"Wrz?sowice","country":"PL","coord":{"lon":19.946541,"lat":49.958618}},{"id":3081350,"name":"Wronki","country":"PL","coord":{"lon":16.38044,"lat":52.71051}},{"id":3081366,"name":"Wroc?aw Pracze","country":"PL","coord":{"lon":16.91667,"lat":51.166672}},{"id":3081368,"name":"Wroc?aw","country":"PL","coord":{"lon":17.033331,"lat":51.099998}},{"id":3081387,"name":"Wr?czyca Wielka","country":"PL","coord":{"lon":18.92086,"lat":50.84589}},{"id":3081403,"name":"Wo?niki","country":"PL","coord":{"lon":19.05991,"lat":50.58934}},{"id":3081404,"name":"Wo?niki","country":"PL","coord":{"lon":19.49078,"lat":49.93774}},{"id":3081419,"name":"Wolsztyn","country":"PL","coord":{"lon":16.117121,"lat":52.11552}},{"id":3081426,"name":"Wo?owice","country":"PL","coord":{"lon":19.726299,"lat":49.988762}},{"id":3081471,"name":"Wolin","country":"PL","coord":{"lon":14.61465,"lat":53.84214}},{"id":3081488,"name":"Wo?czyn","country":"PL","coord":{"lon":18.04994,"lat":51.018452}},{"id":3081495,"name":"Wolbrom","country":"PL","coord":{"lon":19.75831,"lat":50.37957}},{"id":3081525,"name":"Wola Radziszowska","country":"PL","coord":{"lon":19.788271,"lat":49.905579}},{"id":3081527,"name":"Wola Raci??ek","country":"PL","coord":{"lon":18.816669,"lat":52.866669}},{"id":3081560,"name":"Wola Krzysztoporska","country":"PL","coord":{"lon":19.5809,"lat":51.344181}},{"id":3081562,"name":"Wola Ko?uszkowa","country":"PL","coord":{"lon":18.220831,"lat":52.507549}},{"id":3081583,"name":"Wola Filipowska","country":"PL","coord":{"lon":19.58013,"lat":50.134331}},{"id":3081604,"name":"Wola","country":"PL","coord":{"lon":19.123329,"lat":50.017448}},{"id":3081616,"name":"Wojstawice","country":"PL","coord":{"lon":16.86293,"lat":50.715382}},{"id":3081636,"name":"Wojkowice","country":"PL","coord":{"lon":19.03652,"lat":50.365089}},{"id":3081677,"name":"Wodzis?aw ?l?ski","country":"PL","coord":{"lon":18.47205,"lat":50.003769}},{"id":3081680,"name":"Wodzierady","country":"PL","coord":{"lon":19.15123,"lat":51.718262}},{"id":3081691,"name":"Wod?ca","country":"PL","coord":{"lon":19.447001,"lat":50.283741}},{"id":3081699,"name":"W?oszczowa","country":"PL","coord":{"lon":19.965931,"lat":50.852558}},{"id":3081701,"name":"W?oszakowice","country":"PL","coord":{"lon":16.364559,"lat":51.92754}},{"id":3081711,"name":"W?osienica","country":"PL","coord":{"lon":19.31671,"lat":50.018219}},{"id":3081733,"name":"W?odowice","country":"PL","coord":{"lon":19.45155,"lat":50.555599}},{"id":3081741,"name":"W?oc?awek","country":"PL","coord":{"lon":19.067801,"lat":52.64817}},{"id":3081748,"name":"Wle?","country":"PL","coord":{"lon":15.67474,"lat":51.01635}},{"id":3081751,"name":"W?asna","country":"PL","coord":{"lon":19.085899,"lat":50.670151}},{"id":3081752,"name":"W?adys?awowo","country":"PL","coord":{"lon":18.4009,"lat":54.790859}},{"id":3081808,"name":"Witonia","country":"PL","coord":{"lon":19.300489,"lat":52.146549}},{"id":3081818,"name":"Witnica","country":"PL","coord":{"lon":14.89765,"lat":52.67318}},{"id":3081826,"name":"Witkowo","country":"PL","coord":{"lon":17.77264,"lat":52.43964}},{"id":3081832,"name":"Witkowice","country":"PL","coord":{"lon":19.279631,"lat":49.907459}},{"id":3081839,"name":"Witaszyce","country":"PL","coord":{"lon":17.561819,"lat":51.941509}},{"id":3081844,"name":"Witanowice","country":"PL","coord":{"lon":19.525789,"lat":49.917961}},{"id":3081874,"name":"Wis?a","country":"PL","coord":{"lon":18.8591,"lat":49.656288}},{"id":3081895,"name":"Wi?sko","country":"PL","coord":{"lon":16.613899,"lat":51.470322}},{"id":3081909,"name":"Winiary","country":"PL","coord":{"lon":17.60885,"lat":52.551819}},{"id":3081940,"name":"Wilkowice","country":"PL","coord":{"lon":16.53417,"lat":51.885132}},{"id":3081942,"name":"Wilkowice","country":"PL","coord":{"lon":19.089729,"lat":49.762821}},{"id":3081973,"name":"Wilczyn","country":"PL","coord":{"lon":18.161261,"lat":52.488159}},{"id":3082016,"name":"Wilcza","country":"PL","coord":{"lon":18.59668,"lat":50.188992}},{"id":3082025,"name":"Wilamowice","country":"PL","coord":{"lon":19.15237,"lat":49.917011}},{"id":3082044,"name":"Wijewo","country":"PL","coord":{"lon":16.18552,"lat":51.916271}},{"id":3082061,"name":"Wieszowa","country":"PL","coord":{"lon":18.759239,"lat":50.384441}},{"id":3082101,"name":"Wierzchucino","country":"PL","coord":{"lon":18.003071,"lat":54.787971}},{"id":3082110,"name":"Wierzchowo","country":"PL","coord":{"lon":16.099609,"lat":53.460129}},{"id":3082119,"name":"Wierzchos?awice","country":"PL","coord":{"lon":18.356091,"lat":52.869228}},{"id":3082130,"name":"Wierzchlas","country":"PL","coord":{"lon":18.66543,"lat":51.204571}},{"id":3082144,"name":"Wierzbno","country":"PL","coord":{"lon":17.179609,"lat":50.936741}},{"id":3082153,"name":"Wierzbinek","country":"PL","coord":{"lon":18.510851,"lat":52.440262}},{"id":3082192,"name":"Wieprz","country":"PL","coord":{"lon":19.35688,"lat":49.89093}},{"id":3082193,"name":"Wieprz","country":"PL","coord":{"lon":19.180071,"lat":49.647461}},{"id":3082197,"name":"Wielu?","country":"PL","coord":{"lon":18.569639,"lat":51.22097}},{"id":3082206,"name":"Wielowie?","country":"PL","coord":{"lon":18.616079,"lat":50.509659}},{"id":3082282,"name":"Wielka Wie?","country":"PL","coord":{"lon":19.84363,"lat":50.15694}},{"id":3082287,"name":"Wielka Nieszawka","country":"PL","coord":{"lon":18.509729,"lat":52.996189}},{"id":3082299,"name":"Wielichowo","country":"PL","coord":{"lon":16.351801,"lat":52.11573}},{"id":3082310,"name":"Wielgie","country":"PL","coord":{"lon":19.2635,"lat":52.740761}},{"id":3082319,"name":"Wiele?","country":"PL","coord":{"lon":16.17136,"lat":52.894611}},{"id":3082333,"name":"Wi?kszyce","country":"PL","coord":{"lon":18.102209,"lat":50.33659}},{"id":3082359,"name":"Wiechowice","country":"PL","coord":{"lon":17.86652,"lat":49.982578}},{"id":3082364,"name":"Wi?cbork","country":"PL","coord":{"lon":17.490641,"lat":53.35384}},{"id":3082376,"name":"Widuchowa","country":"PL","coord":{"lon":14.39074,"lat":53.12693}},{"id":3082390,"name":"Widawa","country":"PL","coord":{"lon":18.94421,"lat":51.438549}},{"id":3082473,"name":"Wejherowo","country":"PL","coord":{"lon":18.23559,"lat":54.605679}},{"id":3082481,"name":"W?gry","country":"PL","coord":{"lon":18.01741,"lat":50.743191}},{"id":3082485,"name":"W?gorzyno","country":"PL","coord":{"lon":15.55964,"lat":53.541012}},{"id":3082500,"name":"W?gliniec","country":"PL","coord":{"lon":15.22894,"lat":51.287529}},{"id":3082556,"name":"W?sosz","country":"PL","coord":{"lon":16.69059,"lat":51.562241}},{"id":3082581,"name":"Wartkowice","country":"PL","coord":{"lon":19.001801,"lat":51.976261}},{"id":3082587,"name":"Warta","country":"PL","coord":{"lon":18.62483,"lat":51.710491}},{"id":3082597,"name":"Warszewo","country":"PL","coord":{"lon":14.5465,"lat":53.473289}},{"id":3082607,"name":"Warnice","country":"PL","coord":{"lon":14.99402,"lat":53.253761}},{"id":3082611,"name":"Warlubie","country":"PL","coord":{"lon":18.634439,"lat":53.587509}},