[{"id":289523,"name":"Umm ?al?l Mu?ammad","country":"QA","coord":{"lon":51.403889,"lat":25.416941}},{"id":289524,"name":"Umm ?al?l ?Al?","country":"QA","coord":{"lon":51.397499,"lat":25.469721}},{"id":289548,"name":"Umm B?b","country":"QA","coord":{"lon":50.80722,"lat":25.21417}},{"id":289688,"name":"State of Qatar","country":"QA","coord":{"lon":51.25,"lat":25.5}},{"id":289698,"name":"Nu?ayjah","country":"QA","coord":{"lon":51.559166,"lat":25.252501}},{"id":289739,"name":"Mad?nat ash Sham?l","country":"QA","coord":{"lon":51.200901,"lat":26.12933}},{"id":289813,"name":"Dukh?n","country":"QA","coord":{"lon":50.785831,"lat":25.42972}},{"id":289847,"name":"Az? Z?a??yin","country":"QA","coord":{"lon":51.483059,"lat":25.57744}},{"id":289877,"name":"Ash Sh???n?yah","country":"QA","coord":{"lon":51.226391,"lat":25.36861}},{"id":289884,"name":"Ar Ruways","country":"QA","coord":{"lon":51.216671,"lat":26.133329}},{"id":289888,"name":"Ar Rayy?n","country":"QA","coord":{"lon":51.424438,"lat":25.291941}},{"id":289911,"name":"Al Wusayl","country":"QA","coord":{"lon":51.485279,"lat":25.497499}},{"id":289913,"name":"Al Wukayr","country":"QA","coord":{"lon":51.537781,"lat":25.150829}},{"id":289915,"name":"Al Wakrah","country":"QA","coord":{"lon":51.603371,"lat":25.171511}},{"id":289962,"name":"Al Khawr","country":"QA","coord":{"lon":51.505829,"lat":25.683889}},{"id":289975,"name":"Al Jumayl?yah","country":"QA","coord":{"lon":51.09222,"lat":25.60944}},{"id":289993,"name":"Al Ghuwayr?yah","country":"QA","coord":{"lon":51.245281,"lat":25.82972}},{"id":290030,"name":"Doha","country":"QA","coord":{"lon":51.533333,"lat":25.286667}},{"id":389465,"name":"Balad?yat al Khawr wa adh Dhakh?rah","country":"QA","coord":{"lon":51.316669,"lat":25.76667}},{"id":389467,"name":"Balad?yat Umm ?al?l","country":"QA","coord":{"lon":51.333328,"lat":25.466669}},{"id":389469,"name":"Balad?yat ar Rayy?n","country":"QA","coord":{"lon":51.049999,"lat":25.200001}},{"id":389470,"name":"Balad?yat ad Daw?ah","country":"QA","coord":{"lon":51.5,"lat":25.25}},{"id":389472,"name":"Al Wakrah","country":"QA","coord":{"lon":51.333328,"lat":24.85}},{"id":406787,"name":"Fuwayri?","country":"QA","coord":{"lon":51.36694,"lat":26.021669}},{"id":411795,"name":"Umm Ghuwayl?nah","country":"QA","coord":{"lon":51.547779,"lat":25.277222}},{"id":411804,"name":"Al Jisrah","country":"QA","coord":{"lon":51.534168,"lat":25.28611}},{"id":442553,"name":"Mukaynis","country":"QA","coord":{"lon":51.21833,"lat":25.121941}},{"id":8030540,"name":"Balad?yat az? Z?a??yin","country":"QA","coord":{"lon":51.450001,"lat":25.51667}}]