[{"id":2363490,"name":"Vogan","country":"TG","coord":{"lon":1.53333,"lat":6.33333}},{"id":2363686,"name":"Togolese Republic","country":"TG","coord":{"lon":1.16667,"lat":8}},{"id":2363908,"name":"Tchamba","country":"TG","coord":{"lon":1.41667,"lat":9.03333}},{"id":2364041,"name":"Tabligbo","country":"TG","coord":{"lon":1.5,"lat":6.58333}},{"id":2364079,"name":"Sotouboua","country":"TG","coord":{"lon":0.98333,"lat":8.56667}},{"id":2364205,"name":"Savanes","country":"TG","coord":{"lon":0.5,"lat":10.5}},{"id":2364370,"name":"Plateaux","country":"TG","coord":{"lon":1.16667,"lat":7.5}},{"id":2364812,"name":"Niamtougou","country":"TG","coord":{"lon":1.10528,"lat":9.76806}},{"id":2365173,"name":"Maritime","country":"TG","coord":{"lon":1.33333,"lat":6.5}},{"id":2365571,"name":"Pagouda","country":"TG","coord":{"lon":1.32778,"lat":9.7525}},{"id":2365742,"name":"Kouka","country":"TG","coord":{"lon":1.1,"lat":9.76667}},{"id":2366152,"name":"Kara","country":"TG","coord":{"lon":1.18611,"lat":9.55111}},{"id":2367164,"name":"Dapaong","country":"TG","coord":{"lon":0.205,"lat":10.86389}},{"id":2367237,"name":"Centrale","country":"TG","coord":{"lon":1,"lat":8.66667}},{"id":2367252,"name":"Bouvolem","country":"TG","coord":{"lon":1.08333,"lat":8.6}},{"id":2367568,"name":"Bassar","country":"TG","coord":{"lon":0.78333,"lat":9.25}},{"id":2367656,"name":"Bafilo","country":"TG","coord":{"lon":1.26667,"lat":9.35}},{"id":2367660,"name":"Badou","country":"TG","coord":{"lon":0.6,"lat":7.58333}},{"id":2597439,"name":"Kara","country":"TG","coord":{"lon":0.91667,"lat":9.66667}}]